{
  "AYRB": {
    "city": null,
    "country": "PG",
    "elevation_ft": 30,
    "elevation_m": 9,
    "gps": null,
    "iata": null,
    "icao": "AYRB",
    "latitude": -4.13,
    "local": null,
    "longitude": 152.1,
    "name": "RABAUL/NEW BRITA",
    "note": null,
    "reporting": false,
    "state": null,
    "type": "weather_station",
    "website": null,
    "wiki": null
  },
  "AZUH": {
    "city": null,
    "country": "AZ",
    "elevation_ft": 2831,
    "elevation_m": 863,
    "gps": null,
    "iata": null,
    "icao": "AZUH",
    "latitude": 39.11,
    "local": null,
    "longitude": 45.27,
    "name": "NAKHCHIVAN",
    "note": null,
    "reporting": true,
    "state": null,
    "type": "weather_station",
    "website": null,
    "wiki": null
  },
  "BGDU": {
    "city": null,
    "country": "GL",
    "elevation_ft": 66,
    "elevation_m": 20,
    "gps": null,
    "iata": null,
    "icao": "BGDU",
    "latitude": 76.3,
    "local": null,
    "longitude": -69.0,
    "name": "DUNDAS",
    "note": null,
    "reporting": false,
    "state": null,
    "type": "weather_station",
    "website": null,
    "wiki": null
  },
  "BGEM": {
    "city": null,
    "country": "GL",
    "elevation_ft": 154,
    "elevation_m": 47,
    "gps": null,
    "iata": null,
    "icao": "BGEM",
    "latitude": 68.42,
    "local": null,
    "longitude": -52.45,
    "name": "EGEDESMINDE/AUSI",
    "note": null,
    "reporting": false,
    "state": null,
    "type": "weather_station",
    "website": null,
    "wiki": null
  },
  "BGFH": {
    "city": null,
    "country": "GL",
    "elevation_ft": 52,
    "elevation_m": 16,
    "gps": null,
    "iata": null,
    "icao": "BGFH",
    "latitude": 62.0,
    "local": null,
    "longitude": -49.43,
    "name": "FREDERIKSHAB (PO",
    "note": null,
    "reporting": false,
    "state": null,
    "type": "weather_station",
    "website": null,
    "wiki": null
  },
  "BGHB": {
    "city": null,
    "country": "GL",
    "elevation_ft": 30,
    "elevation_m": 9,
    "gps": null,
    "iata": null,
    "icao": "BGHB",
    "latitude": 66.55,
    "local": null,
    "longitude": -53.4,
    "name": "HOLSTEINSBORG",
    "note": null,
    "reporting": false,
    "state": null,
    "type": "weather_station",
    "website": null,
    "wiki": null
  },
  "BGTM": {
    "city": null,
    "country": "GL",
    "elevation_ft": 33,
    "elevation_m": 10,
    "gps": null,
    "iata": null,
    "icao": "BGTM",
    "latitude": 62.25,
    "local": null,
    "longitude": -42.15,
    "name": "TINGMIARMIUT",
    "note": null,
    "reporting": false,
    "state": null,
    "type": "weather_station",
    "website": null,
    "wiki": null
  },
  "BGUP": {
    "city": null,
    "country": "GL",
    "elevation_ft": 207,
    "elevation_m": 63,
    "gps": null,
    "iata": null,
    "icao": "BGUP",
    "latitude": 72.46,
    "local": null,
    "longitude": -56.1,
    "name": "UPERNAVIK AWS (A",
    "note": null,
    "reporting": false,
    "state": null,
    "type": "weather_station",
    "website": null,
    "wiki": null
  },
  "CACQ": {
    "city": null,
    "country": "CA",
    "elevation_ft": 102,
    "elevation_m": 31,
    "gps": null,
    "iata": null,
    "icao": "CACQ",
    "latitude": 47.01,
    "local": null,
    "longitude": -65.28,
    "name": "MIRAMICHI",
    "note": null,
    "reporting": false,
    "state": "NB",
    "type": "weather_station",
    "website": null,
    "wiki": null
  },
  "CAHR": {
    "city": null,
    "country": "CA",
    "elevation_ft": 171,
    "elevation_m": 52,
    "gps": null,
    "iata": null,
    "icao": "CAHR",
    "latitude": 46.21,
    "local": null,
    "longitude": -63.1,
    "name": "HARRINGTON CDA",
    "note": null,
    "reporting": true,
    "state": "PE",
    "type": "weather_station",
    "website": null,
    "wiki": null
  },
  "CERM": {
    "city": null,
    "country": "CA",
    "elevation_ft": 495,
    "elevation_m": 151,
    "gps": null,
    "iata": null,
    "icao": "CERM",
    "latitude": 47.25,
    "local": null,
    "longitude": -68.19,
    "name": "EDMUNSTON",
    "note": null,
    "reporting": true,
    "state": "NB",
    "type": "weather_station",
    "website": null,
    "wiki": null
  },
  "CMBB": {
    "city": null,
    "country": "CA",
    "elevation_ft": 246,
    "elevation_m": 75,
    "gps": null,
    "iata": null,
    "icao": "CMBB",
    "latitude": 45.37,
    "local": null,
    "longitude": -74.25,
    "name": "CHATHAM BROWNBRG",
    "note": null,
    "reporting": false,
    "state": "QC",
    "type": "weather_station",
    "website": null,
    "wiki": null
  },
  "CMBR": {
    "city": null,
    "country": "CA",
    "elevation_ft": 72,
    "elevation_m": 22,
    "gps": null,
    "iata": null,
    "icao": "CMBR",
    "latitude": 45.19,
    "local": null,
    "longitude": -73.55,
    "name": "BEAUHARNOS",
    "note": null,
    "reporting": false,
    "state": "QC",
    "type": "weather_station",
    "website": null,
    "wiki": null
  },
  "CMCT": {
    "city": null,
    "country": "CA",
    "elevation_ft": 128,
    "elevation_m": 39,
    "gps": null,
    "iata": null,
    "icao": "CMCT",
    "latitude": 45.2,
    "local": null,
    "longitude": -73.35,
    "name": "ST CONSTANT",
    "note": null,
    "reporting": false,
    "state": "QC",
    "type": "weather_station",
    "website": null,
    "wiki": null
  },
  "CMCW": {
    "city": null,
    "country": "CA",
    "elevation_ft": 860,
    "elevation_m": 262,
    "gps": null,
    "iata": null,
    "icao": "CMCW",
    "latitude": 45.01,
    "local": null,
    "longitude": -73.52,
    "name": "COVEY HILL",
    "note": null,
    "reporting": false,
    "state": "QC",
    "type": "weather_station",
    "website": null,
    "wiki": null
  },
  "CMFM": {
    "city": null,
    "country": "CA",
    "elevation_ft": 2175,
    "elevation_m": 663,
    "gps": null,
    "iata": null,
    "icao": "CMFM",
    "latitude": 47.19,
    "local": null,
    "longitude": -71.09,
    "name": "FORET MONTMORENC",
    "note": null,
    "reporting": true,
    "state": "QC",
    "type": "weather_station",
    "website": null,
    "wiki": null
  },
  "CMGB": {
    "city": null,
    "country": "CA",
    "elevation_ft": 285,
    "elevation_m": 87,
    "gps": null,
    "iata": null,
    "icao": "CMGB",
    "latitude": 45.22,
    "local": null,
    "longitude": -72.46,
    "name": "GRANBY",
    "note": null,
    "reporting": true,
    "state": "QC",
    "type": "weather_station",
    "website": null,
    "wiki": null
  },
  "CMHB": {
    "city": null,
    "country": "CA",
    "elevation_ft": 344,
    "elevation_m": 105,
    "gps": null,
    "iata": null,
    "icao": "CMHB",
    "latitude": 45.38,
    "local": null,
    "longitude": -75.12,
    "name": "LOCHABER",
    "note": null,
    "reporting": false,
    "state": "QC",
    "type": "weather_station",
    "website": null,
    "wiki": null
  },
  "CMHN": {
    "city": null,
    "country": "CA",
    "elevation_ft": 551,
    "elevation_m": 168,
    "gps": null,
    "iata": null,
    "icao": "CMHN",
    "latitude": 45.48,
    "local": null,
    "longitude": -74.39,
    "name": "HARRINGTON",
    "note": null,
    "reporting": false,
    "state": "QC",
    "type": "weather_station",
    "website": null,
    "wiki": null
  },
  "CMHW": {
    "city": null,
    "country": "CA",
    "elevation_ft": 138,
    "elevation_m": 42,
    "gps": null,
    "iata": null,
    "icao": "CMHW",
    "latitude": 45.1,
    "local": null,
    "longitude": -73.52,
    "name": "HOWICK",
    "note": null,
    "reporting": false,
    "state": "QC",
    "type": "weather_station",
    "website": null,
    "wiki": null
  },
  "CMLA": {
    "city": null,
    "country": "CA",
    "elevation_ft": 200,
    "elevation_m": 61,
    "gps": null,
    "iata": null,
    "icao": "CMLA",
    "latitude": 45.04,
    "local": null,
    "longitude": -73.5,
    "name": "L ARTIFICE",
    "note": null,
    "reporting": false,
    "state": "QC",
    "type": "weather_station",
    "website": null,
    "wiki": null
  },
  "CMLI": {
    "city": null,
    "country": "CA",
    "elevation_ft": 102,
    "elevation_m": 31,
    "gps": null,
    "iata": null,
    "icao": "CMLI",
    "latitude": 45.52,
    "local": null,
    "longitude": -73.0,
    "name": "SAINT LOUIS",
    "note": null,
    "reporting": false,
    "state": "QC",
    "type": "weather_station",
    "website": null,
    "wiki": null
  },
  "CMPD": {
    "city": null,
    "country": "CA",
    "elevation_ft": 574,
    "elevation_m": 175,
    "gps": null,
    "iata": null,
    "icao": "CMPD",
    "latitude": 45.53,
    "local": null,
    "longitude": -74.06,
    "name": "PIEDMONT",
    "note": null,
    "reporting": false,
    "state": "QC",
    "type": "weather_station",
    "website": null,
    "wiki": null
  },
  "CMPL": {
    "city": null,
    "country": "CA",
    "elevation_ft": 184,
    "elevation_m": 56,
    "gps": null,
    "iata": null,
    "icao": "CMPL",
    "latitude": 45.18,
    "local": null,
    "longitude": -74.18,
    "name": "ST POLYCARPE",
    "note": null,
    "reporting": false,
    "state": "QC",
    "type": "weather_station",
    "website": null,
    "wiki": null
  },
  "CMRG": {
    "city": null,
    "country": "CA",
    "elevation_ft": 177,
    "elevation_m": 54,
    "gps": null,
    "iata": null,
    "icao": "CMRG",
    "latitude": 45.25,
    "local": null,
    "longitude": -73.03,
    "name": "ROUGEMONT",
    "note": null,
    "reporting": false,
    "state": "QC",
    "type": "weather_station",
    "website": null,
    "wiki": null
  },
  "CMRI": {
    "city": null,
    "country": "CA",
    "elevation_ft": 98,
    "elevation_m": 30,
    "gps": null,
    "iata": null,
    "icao": "CMRI",
    "latitude": 45.29,
    "local": null,
    "longitude": -74.18,
    "name": "RIGAUD",
    "note": null,
    "reporting": false,
    "state": "QC",
    "type": "weather_station",
    "website": null,
    "wiki": null
  },
  "CMRU": {
    "city": null,
    "country": "CA",
    "elevation_ft": 213,
    "elevation_m": 65,
    "gps": null,
    "iata": null,
    "icao": "CMRU",
    "latitude": 45.03,
    "local": null,
    "longitude": -73.48,
    "name": "RUSSELTOWN",
    "note": null,
    "reporting": false,
    "state": "QC",
    "type": "weather_station",
    "website": null,
    "wiki": null
  },
  "CMRY": {
    "city": null,
    "country": "CA",
    "elevation_ft": 194,
    "elevation_m": 59,
    "gps": null,
    "iata": null,
    "icao": "CMRY",
    "latitude": 45.07,
    "local": null,
    "longitude": -73.41,
    "name": "RUISSEAU CRANB",
    "note": null,
    "reporting": false,
    "state": "QC",
    "type": "weather_station",
    "website": null,
    "wiki": null
  },
  "CMSB": {
    "city": null,
    "country": "CA",
    "elevation_ft": 161,
    "elevation_m": 49,
    "gps": null,
    "iata": null,
    "icao": "CMSB",
    "latitude": 45.13,
    "local": null,
    "longitude": -73.01,
    "name": "ST SABINE",
    "note": null,
    "reporting": false,
    "state": "QC",
    "type": "weather_station",
    "website": null,
    "wiki": null
  },
  "CMSC": {
    "city": null,
    "country": "CA",
    "elevation_ft": 180,
    "elevation_m": 55,
    "gps": null,
    "iata": null,
    "icao": "CMSC",
    "latitude": 46.12,
    "local": null,
    "longitude": -72.27,
    "name": "ST CELESTIN",
    "note": null,
    "reporting": false,
    "state": "QC",
    "type": "weather_station",
    "website": null,
    "wiki": null
  },
  "CMSX": {
    "city": null,
    "country": "CA",
    "elevation_ft": 194,
    "elevation_m": 59,
    "gps": null,
    "iata": null,
    "icao": "CMSX",
    "latitude": 45.11,
    "local": null,
    "longitude": -73.37,
    "name": "ST M-D-NAPIERVIL",
    "note": null,
    "reporting": false,
    "state": "QC",
    "type": "weather_station",
    "website": null,
    "wiki": null
  },
  "CMWD": {
    "city": null,
    "country": "CA",
    "elevation_ft": 689,
    "elevation_m": 210,
    "gps": null,
    "iata": null,
    "icao": "CMWD",
    "latitude": 46.01,
    "local": null,
    "longitude": -73.49,
    "name": "RAWDON",
    "note": null,
    "reporting": false,
    "state": "QC",
    "type": "weather_station",
    "website": null,
    "wiki": null
  },
  "CMYT": {
    "city": null,
    "country": "CA",
    "elevation_ft": 180,
    "elevation_m": 55,
    "gps": null,
    "iata": null,
    "icao": "CMYT",
    "latitude": 45.08,
    "local": null,
    "longitude": -73.46,
    "name": "ST CHRYSOSTOME",
    "note": null,
    "reporting": false,
    "state": "QC",
    "type": "weather_station",
    "website": null,
    "wiki": null
  },
  "CNGH": {
    "city": null,
    "country": "CA",
    "elevation_ft": 66,
    "elevation_m": 20,
    "gps": null,
    "iata": null,
    "icao": "CNGH",
    "latitude": 70.38,
    "local": null,
    "longitude": -100.16,
    "name": "GATESHEAD ISLAND",
    "note": null,
    "reporting": false,
    "state": "NT",
    "type": "weather_station",
    "website": null,
    "wiki": null
  },
  "CPBT": {
    "city": null,
    "country": "CA",
    "elevation_ft": 3274,
    "elevation_m": 998,
    "gps": null,
    "iata": null,
    "icao": "CPBT",
    "latitude": 49.32,
    "local": null,
    "longitude": -113.03,
    "name": "BLOOD TRIBE AGDM",
    "note": null,
    "reporting": true,
    "state": "AB",
    "type": "weather_station",
    "website": null,
    "wiki": null
  },
  "CPEH": {
    "city": null,
    "country": "CA",
    "elevation_ft": 2671,
    "elevation_m": 814,
    "gps": null,
    "iata": null,
    "icao": "CPEH",
    "latitude": 50.11,
    "local": null,
    "longitude": -112.26,
    "name": "ENCHANT AGDM",
    "note": null,
    "reporting": true,
    "state": "AB",
    "type": "weather_station",
    "website": null,
    "wiki": null
  },
  "CPFI": {
    "city": null,
    "country": "CA",
    "elevation_ft": 2638,
    "elevation_m": 804,
    "gps": null,
    "iata": null,
    "icao": "CPFI",
    "latitude": 49.48,
    "local": null,
    "longitude": -112.02,
    "name": "FINCASTLE AGDM",
    "note": null,
    "reporting": true,
    "state": "AB",
    "type": "weather_station",
    "website": null,
    "wiki": null
  },
  "CPIR": {
    "city": null,
    "country": "CA",
    "elevation_ft": 2936,
    "elevation_m": 895,
    "gps": null,
    "iata": null,
    "icao": "CPIR",
    "latitude": 49.54,
    "local": null,
    "longitude": -112.44,
    "name": "IRON SPRINGS",
    "note": null,
    "reporting": true,
    "state": "AB",
    "type": "weather_station",
    "website": null,
    "wiki": null
  },
  "CPQL": {
    "city": null,
    "country": "CA",
    "elevation_ft": 2963,
    "elevation_m": 903,
    "gps": null,
    "iata": null,
    "icao": "CPQL",
    "latitude": 49.41,
    "local": null,
    "longitude": -112.45,
    "name": "LETHBRIDGE DEMO",
    "note": null,
    "reporting": false,
    "state": "AB",
    "type": "weather_station",
    "website": null,
    "wiki": null
  },
  "CPRO": {
    "city": null,
    "country": "CA",
    "elevation_ft": 2405,
    "elevation_m": 733,
    "gps": null,
    "iata": null,
    "icao": "CPRO",
    "latitude": 50.5,
    "local": null,
    "longitude": -112.03,
    "name": "ROSEMARY AGDM",
    "note": null,
    "reporting": true,
    "state": "AB",
    "type": "weather_station",
    "website": null,
    "wiki": null
  },
  "CPRY": {
    "city": null,
    "country": "CA",
    "elevation_ft": 3107,
    "elevation_m": 947,
    "gps": null,
    "iata": null,
    "icao": "CPRY",
    "latitude": 49.29,
    "local": null,
    "longitude": -112.41,
    "name": "RAYMOND AGDM",
    "note": null,
    "reporting": true,
    "state": "AB",
    "type": "weather_station",
    "website": null,
    "wiki": null
  },
  "CPST": {
    "city": null,
    "country": "CA",
    "elevation_ft": 3297,
    "elevation_m": 1005,
    "gps": null,
    "iata": null,
    "icao": "CPST",
    "latitude": 51.02,
    "local": null,
    "longitude": -113.17,
    "name": "STRATHMORE AGDM",
    "note": null,
    "reporting": true,
    "state": "AB",
    "type": "weather_station",
    "website": null,
    "wiki": null
  },
  "CPSV": {
    "city": null,
    "country": "CA",
    "elevation_ft": 2513,
    "elevation_m": 766,
    "gps": null,
    "iata": null,
    "icao": "CPSV",
    "latitude": 49.55,
    "local": null,
    "longitude": -110.55,
    "name": "SEVEN PERSONS",
    "note": null,
    "reporting": true,
    "state": "AB",
    "type": "weather_station",
    "website": null,
    "wiki": null
  },
  "CPXL": {
    "city": null,
    "country": "CA",
    "elevation_ft": 2628,
    "elevation_m": 801,
    "gps": null,
    "iata": null,
    "icao": "CPXL",
    "latitude": 49.52,
    "local": null,
    "longitude": -111.23,
    "name": "BOW ISLAND AGDM",
    "note": null,
    "reporting": true,
    "state": "AB",
    "type": "weather_station",
    "website": null,
    "wiki": null
  },
  "CTAE": {
    "city": null,
    "country": "CA",
    "elevation_ft": 187,
    "elevation_m": 57,
    "gps": null,
    "iata": null,
    "icao": "CTAE",
    "latitude": 45.33,
    "local": null,
    "longitude": -74.53,
    "name": "ALFRED",
    "note": null,
    "reporting": false,
    "state": "ON",
    "type": "weather_station",
    "website": null,
    "wiki": null
  },
  "CTAL": {
    "city": null,
    "country": "CA",
    "elevation_ft": 253,
    "elevation_m": 77,
    "gps": null,
    "iata": null,
    "icao": "CTAL",
    "latitude": 45.19,
    "local": null,
    "longitude": -74.37,
    "name": "ALEXANDRIA",
    "note": null,
    "reporting": false,
    "state": "ON",
    "type": "weather_station",
    "website": null,
    "wiki": null
  },
  "CTCK": {
    "city": null,
    "country": "CA",
    "elevation_ft": 276,
    "elevation_m": 84,
    "gps": null,
    "iata": null,
    "icao": "CTCK",
    "latitude": 45.15,
    "local": null,
    "longitude": -74.58,
    "name": "MOOSE CREEK",
    "note": null,
    "reporting": true,
    "state": "ON",
    "type": "weather_station",
    "website": null,
    "wiki": null
  },
  "CTCW": {
    "city": null,
    "country": "CA",
    "elevation_ft": 190,
    "elevation_m": 58,
    "gps": null,
    "iata": null,
    "icao": "CTCW",
    "latitude": 45.02,
    "local": null,
    "longitude": -74.41,
    "name": "CORNWALL",
    "note": null,
    "reporting": false,
    "state": "ON",
    "type": "weather_station",
    "website": null,
    "wiki": null
  },
  "CTNK": {
    "city": null,
    "country": "CA",
    "elevation_ft": 1329,
    "elevation_m": 405,
    "gps": null,
    "iata": null,
    "icao": "CTNK",
    "latitude": 45.32,
    "local": null,
    "longitude": -78.16,
    "name": "ALGONQUIN PARK",
    "note": null,
    "reporting": true,
    "state": "ON",
    "type": "weather_station",
    "website": null,
    "wiki": null
  },
  "CTPP": {
    "city": null,
    "country": "HT",
    "elevation_ft": 125,
    "elevation_m": 38,
    "gps": null,
    "iata": null,
    "icao": "CTPP",
    "latitude": 18.34,
    "local": null,
    "longitude": -72.19,
    "name": "CAMP CANARGUS",
    "note": null,
    "reporting": false,
    "state": null,
    "type": "weather_station",
    "website": null,
    "wiki": null
  },
  "CTRA": {
    "city": null,
    "country": "CA",
    "elevation_ft": 1417,
    "elevation_m": 432,
    "gps": null,
    "iata": null,
    "icao": "CTRA",
    "latitude": 49.4,
    "local": null,
    "longitude": -93.44,
    "name": "RAWSON LAKE",
    "note": null,
    "reporting": true,
    "state": "ON",
    "type": "weather_station",
    "website": null,
    "wiki": null
  },
  "CTWN": {
    "city": null,
    "country": "CA",
    "elevation_ft": 246,
    "elevation_m": 75,
    "gps": null,
    "iata": null,
    "icao": "CTWN",
    "latitude": 45.03,
    "local": null,
    "longitude": -75.2,
    "name": "WINCHESTER",
    "note": null,
    "reporting": false,
    "state": "ON",
    "type": "weather_station",
    "website": null,
    "wiki": null
  },
  "CWAB": {
    "city": null,
    "country": "CA",
    "elevation_ft": 715,
    "elevation_m": 218,
    "gps": null,
    "iata": null,
    "icao": "CWAB",
    "latitude": 48.17,
    "local": null,
    "longitude": -88.52,
    "name": "TROWBRIDGE (MAPS",
    "note": null,
    "reporting": false,
    "state": "ON",
    "type": "weather_station",
    "website": null,
    "wiki": null
  },
  "CWAC": {
    "city": null,
    "country": "CA",
    "elevation_ft": 135,
    "elevation_m": 41,
    "gps": null,
    "iata": null,
    "icao": "CWAC",
    "latitude": 48.4,
    "local": null,
    "longitude": -124.5,
    "name": "NITINAT LAKE (MA",
    "note": null,
    "reporting": false,
    "state": "BC",
    "type": "weather_station",
    "website": null,
    "wiki": null
  },
  "CWAD": {
    "city": null,
    "country": "CA",
    "elevation_ft": 13,
    "elevation_m": 4,
    "gps": null,
    "iata": null,
    "icao": "CWAD",
    "latitude": 50.0,
    "local": null,
    "longitude": -125.12,
    "name": "CAPE MUDGE (LGT",
    "note": null,
    "reporting": false,
    "state": "BC",
    "type": "weather_station",
    "website": null,
    "wiki": null
  },
  "CWAE": {
    "city": null,
    "country": "CA",
    "elevation_ft": 2159,
    "elevation_m": 658,
    "gps": null,
    "iata": null,
    "icao": "CWAE",
    "latitude": 50.08,
    "local": null,
    "longitude": -122.57,
    "name": "WHISTLER",
    "note": null,
    "reporting": true,
    "state": "BC",
    "type": "weather_station",
    "website": null,
    "wiki": null
  },
  "CWAF": {
    "city": null,
    "country": "CA",
    "elevation_ft": 20,
    "elevation_m": 6,
    "gps": null,
    "iata": null,
    "icao": "CWAF",
    "latitude": 48.04,
    "local": null,
    "longitude": -69.33,
    "name": "ILE ROUGE(MAPS)",
    "note": null,
    "reporting": true,
    "state": "QC",
    "type": "weather_station",
    "website": null,
    "wiki": null
  },
  "CWAG": {
    "city": null,
    "country": "CA",
    "elevation_ft": 630,
    "elevation_m": 192,
    "gps": null,
    "iata": null,
    "icao": "CWAG",
    "latitude": 49.55,
    "local": null,
    "longitude": -55.4,
    "name": "LA SCIE",
    "note": null,
    "reporting": false,
    "state": "NL",
    "type": "weather_station",
    "website": null,
    "wiki": null
  },
  "CWAH": {
    "city": null,
    "country": "CA",
    "elevation_ft": 75,
    "elevation_m": 23,
    "gps": null,
    "iata": null,
    "icao": "CWAH",
    "latitude": 45.51,
    "local": null,
    "longitude": -64.16,
    "name": "AMHERST (MARS)",
    "note": null,
    "reporting": false,
    "state": "NS",
    "type": "weather_station",
    "website": null,
    "wiki": null
  },
  "CWAJ": {
    "city": null,
    "country": "CA",
    "elevation_ft": 581,
    "elevation_m": 177,
    "gps": null,
    "iata": null,
    "icao": "CWAJ",
    "latitude": 42.15,
    "local": null,
    "longitude": -81.54,
    "name": "ERIEAU (MAPS)",
    "note": null,
    "reporting": true,
    "state": "ON",
    "type": "weather_station",
    "website": null,
    "wiki": null
  },
  "CWAN": {
    "city": null,
    "country": "CA",
    "elevation_ft": 89,
    "elevation_m": 27,
    "gps": null,
    "iata": null,
    "icao": "CWAN",
    "latitude": 48.55,
    "local": null,
    "longitude": -125.32,
    "name": "AMPHITRITE POINT",
    "note": null,
    "reporting": false,
    "state": "BC",
    "type": "weather_station",
    "website": null,
    "wiki": null
  },
  "CWAQ": {
    "city": null,
    "country": "CA",
    "elevation_ft": 2497,
    "elevation_m": 761,
    "gps": null,
    "iata": null,
    "icao": "CWAQ",
    "latitude": 49.03,
    "local": null,
    "longitude": -105.29,
    "name": "CORONACH SPC",
    "note": null,
    "reporting": true,
    "state": "SK",
    "type": "weather_station",
    "website": null,
    "wiki": null
  },
  "CWAR": {
    "city": null,
    "country": "CA",
    "elevation_ft": 20,
    "elevation_m": 6,
    "gps": null,
    "iata": null,
    "icao": "CWAR",
    "latitude": 47.17,
    "local": null,
    "longitude": -54.0,
    "name": "ARGENTIA (MARS)",
    "note": null,
    "reporting": true,
    "state": "NL",
    "type": "weather_station",
    "website": null,
    "wiki": null
  },
  "CWAU": {
    "city": null,
    "country": "CA",
    "elevation_ft": 13,
    "elevation_m": 4,
    "gps": null,
    "iata": null,
    "icao": "CWAU",
    "latitude": 52.11,
    "local": null,
    "longitude": -128.07,
    "name": "DRYAD POINT (LGT",
    "note": null,
    "reporting": false,
    "state": "BC",
    "type": "weather_station",
    "website": null,
    "wiki": null
  },
  "CWAV": {
    "city": null,
    "country": "CA",
    "elevation_ft": 3658,
    "elevation_m": 1115,
    "gps": null,
    "iata": null,
    "icao": "CWAV",
    "latitude": 51.46,
    "local": null,
    "longitude": -114.4,
    "name": "SUNDRE",
    "note": null,
    "reporting": true,
    "state": "AB",
    "type": "weather_station",
    "website": null,
    "wiki": null
  },
  "CWAX": {
    "city": null,
    "country": "CA",
    "elevation_ft": 364,
    "elevation_m": 111,
    "gps": null,
    "iata": null,
    "icao": "CWAX",
    "latitude": 51.23,
    "local": null,
    "longitude": -56.05,
    "name": "SAINT ANTHONY",
    "note": null,
    "reporting": false,
    "state": "NL",
    "type": "weather_station",
    "website": null,
    "wiki": null
  },
  "CWBA": {
    "city": null,
    "country": "CA",
    "elevation_ft": 594,
    "elevation_m": 181,
    "gps": null,
    "iata": null,
    "icao": "CWBA",
    "latitude": 46.43,
    "local": null,
    "longitude": -79.06,
    "name": "TEMISCAMINQUE",
    "note": null,
    "reporting": true,
    "state": "QC",
    "type": "weather_station",
    "website": null,
    "wiki": null
  },
  "CWBD": {
    "city": null,
    "country": "CA",
    "elevation_ft": 1909,
    "elevation_m": 582,
    "gps": null,
    "iata": null,
    "icao": "CWBD",
    "latitude": 50.33,
    "local": null,
    "longitude": -103.39,
    "name": "INDIAN HEAD CDA",
    "note": null,
    "reporting": false,
    "state": "SK",
    "type": "weather_station",
    "website": null,
    "wiki": null
  },
  "CWBE": {
    "city": null,
    "country": "CA",
    "elevation_ft": 617,
    "elevation_m": 188,
    "gps": null,
    "iata": null,
    "icao": "CWBE",
    "latitude": 45.59,
    "local": null,
    "longitude": -81.29,
    "name": "KILLARNEY (MAPS)",
    "note": null,
    "reporting": true,
    "state": "ON",
    "type": "weather_station",
    "website": null,
    "wiki": null
  },
  "CWBF": {
    "city": null,
    "country": "CA",
    "elevation_ft": 39,
    "elevation_m": 12,
    "gps": null,
    "iata": null,
    "icao": "CWBF",
    "latitude": 47.37,
    "local": null,
    "longitude": -57.38,
    "name": "BURGEO",
    "note": null,
    "reporting": false,
    "state": "NL",
    "type": "weather_station",
    "website": null,
    "wiki": null
  },
  "CWBG": {
    "city": null,
    "country": "CA",
    "elevation_ft": 5479,
    "elevation_m": 1670,
    "gps": null,
    "iata": null,
    "icao": "CWBG",
    "latitude": 51.15,
    "local": null,
    "longitude": -123.04,
    "name": "BIG CREEK(AUTO)",
    "note": null,
    "reporting": false,
    "state": "BC",
    "type": "weather_station",
    "website": null,
    "wiki": null
  },
  "CWBI": {
    "city": null,
    "country": "CA",
    "elevation_ft": 623,
    "elevation_m": 190,
    "gps": null,
    "iata": null,
    "icao": "CWBI",
    "latitude": 45.48,
    "local": null,
    "longitude": -80.32,
    "name": "BRITT (MARS)",
    "note": null,
    "reporting": false,
    "state": "ON",
    "type": "weather_station",
    "website": null,
    "wiki": null
  },
  "CWBK": {
    "city": null,
    "country": "CA",
    "elevation_ft": 7,
    "elevation_m": 2,
    "gps": null,
    "iata": null,
    "icao": "CWBK",
    "latitude": 45.46,
    "local": null,
    "longitude": -62.4,
    "name": "CARIBOU POINT(MA",
    "note": null,
    "reporting": true,
    "state": "NS",
    "type": "weather_station",
    "website": null,
    "wiki": null
  },
  "CWBM": {
    "city": null,
    "country": "CA",
    "elevation_ft": 2444,
    "elevation_m": 745,
    "gps": null,
    "iata": null,
    "icao": "CWBM",
    "latitude": 55.12,
    "local": null,
    "longitude": -119.24,
    "name": "BEAVERLODGE",
    "note": null,
    "reporting": false,
    "state": "AB",
    "type": "weather_station",
    "website": null,
    "wiki": null
  },
  "CWBO": {
    "city": null,
    "country": "CA",
    "elevation_ft": 2467,
    "elevation_m": 752,
    "gps": null,
    "iata": null,
    "icao": "CWBO",
    "latitude": 50.32,
    "local": null,
    "longitude": -111.5,
    "name": "BROOKS (AUTOB)",
    "note": null,
    "reporting": true,
    "state": "AB",
    "type": "weather_station",
    "website": null,
    "wiki": null
  },
  "CWBR": {
    "city": null,
    "country": "CA",
    "elevation_ft": 102,
    "elevation_m": 31,
    "gps": null,
    "iata": null,
    "icao": "CWBR",
    "latitude": 66.02,
    "local": null,
    "longitude": -91.5,
    "name": "BROWN RIVER",
    "note": null,
    "reporting": false,
    "state": "NU",
    "type": "weather_station",
    "website": null,
    "wiki": null
  },
  "CWBS": {
    "city": null,
    "country": "CA",
    "elevation_ft": 10,
    "elevation_m": 3,
    "gps": null,
    "iata": null,
    "icao": "CWBS",
    "latitude": 46.11,
    "local": null,
    "longitude": -72.55,
    "name": "LAC ST PIERRE (A",
    "note": null,
    "reporting": true,
    "state": "QC",
    "type": "weather_station",
    "website": null,
    "wiki": null
  },
  "CWBT": {
    "city": null,
    "country": "CA",
    "elevation_ft": 39,
    "elevation_m": 12,
    "gps": null,
    "iata": null,
    "icao": "CWBT",
    "latitude": 50.16,
    "local": null,
    "longitude": -64.14,
    "name": "LONGUE PT DE MON",
    "note": null,
    "reporting": true,
    "state": "QC",
    "type": "weather_station",
    "website": null,
    "wiki": null
  },
  "CWBU": {
    "city": null,
    "country": "CA",
    "elevation_ft": 1211,
    "elevation_m": 369,
    "gps": null,
    "iata": null,
    "icao": "CWBU",
    "latitude": 53.2,
    "local": null,
    "longitude": -104.01,
    "name": "NIPAWIN",
    "note": null,
    "reporting": true,
    "state": "SK",
    "type": "weather_station",
    "website": null,
    "wiki": null
  },
  "CWBV": {
    "city": null,
    "country": "CA",
    "elevation_ft": 52,
    "elevation_m": 16,
    "gps": null,
    "iata": null,
    "icao": "CWBV",
    "latitude": 44.49,
    "local": null,
    "longitude": -62.2,
    "name": "BEAVER ISLAND(MA",
    "note": null,
    "reporting": true,
    "state": "NS",
    "type": "weather_station",
    "website": null,
    "wiki": null
  },
  "CWBY": {
    "city": null,
    "country": "CA",
    "elevation_ft": 184,
    "elevation_m": 56,
    "gps": null,
    "iata": null,
    "icao": "CWBY",
    "latitude": 49.5,
    "local": null,
    "longitude": -64.17,
    "name": "PORT MENIER (MAR",
    "note": null,
    "reporting": true,
    "state": "QC",
    "type": "weather_station",
    "website": null,
    "wiki": null
  },
  "CWBZ": {
    "city": null,
    "country": "CA",
    "elevation_ft": 161,
    "elevation_m": 49,
    "gps": null,
    "iata": null,
    "icao": "CWBZ",
    "latitude": 45.07,
    "local": null,
    "longitude": -74.17,
    "name": "ST ANICET",
    "note": null,
    "reporting": true,
    "state": "QC",
    "type": "weather_station",
    "website": null,
    "wiki": null
  },
  "CWCA": {
    "city": null,
    "country": "CA",
    "elevation_ft": 66,
    "elevation_m": 20,
    "gps": null,
    "iata": null,
    "icao": "CWCA",
    "latitude": 53.4,
    "local": null,
    "longitude": -57.02,
    "name": "CARTWRIGHT",
    "note": null,
    "reporting": false,
    "state": "NL",
    "type": "weather_station",
    "website": null,
    "wiki": null
  },
  "CWCF": {
    "city": null,
    "country": "CA",
    "elevation_ft": 719,
    "elevation_m": 219,
    "gps": null,
    "iata": null,
    "icao": "CWCF",
    "latitude": 52.21,
    "local": null,
    "longitude": -97.02,
    "name": "BERENS RIVER APT",
    "note": null,
    "reporting": true,
    "state": "MB",
    "type": "weather_station",
    "website": null,
    "wiki": null
  },
  "CWCH": {
    "city": null,
    "country": "CA",
    "elevation_ft": 1391,
    "elevation_m": 424,
    "gps": null,
    "iata": null,
    "icao": "CWCH",
    "latitude": 48.45,
    "local": null,
    "longitude": -91.37,
    "name": "ATIKOKAN (AUT)",
    "note": null,
    "reporting": false,
    "state": "ON",
    "type": "weather_station",
    "website": null,
    "wiki": null
  },
  "CWCI": {
    "city": null,
    "country": "CA",
    "elevation_ft": 548,
    "elevation_m": 167,
    "gps": null,
    "iata": null,
    "icao": "CWCI",
    "latitude": 47.2,
    "local": null,
    "longitude": -85.49,
    "name": "CARIBOU ISL (MAP",
    "note": null,
    "reporting": true,
    "state": "ON",
    "type": "weather_station",
    "website": null,
    "wiki": null
  },
  "CWCJ": {
    "city": null,
    "country": "CA",
    "elevation_ft": 679,
    "elevation_m": 207,
    "gps": null,
    "iata": null,
    "icao": "CWCJ",
    "latitude": 48.36,
    "local": null,
    "longitude": -86.17,
    "name": "PUKASKWA PARK",
    "note": null,
    "reporting": true,
    "state": "ON",
    "type": "weather_station",
    "website": null,
    "wiki": null
  },
  "CWCL": {
    "city": null,
    "country": "CA",
    "elevation_ft": 3474,
    "elevation_m": 1059,
    "gps": null,
    "iata": null,
    "icao": "CWCL",
    "latitude": 51.08,
    "local": null,
    "longitude": -121.3,
    "name": "CLINTON (MARS)",
    "note": null,
    "reporting": false,
    "state": "BC",
    "type": "weather_station",
    "website": null,
    "wiki": null
  },
  "CWCO": {
    "city": null,
    "country": "CA",
    "elevation_ft": 597,
    "elevation_m": 182,
    "gps": null,
    "iata": null,
    "icao": "CWCO",
    "latitude": 44.3,
    "local": null,
    "longitude": -80.13,
    "name": "COLLINGWOOD (AUT",
    "note": null,
    "reporting": true,
    "state": "ON",
    "type": "weather_station",
    "website": null,
    "wiki": null
  },
  "CWCT": {
    "city": null,
    "country": "CA",
    "elevation_ft": 2602,
    "elevation_m": 793,
    "gps": null,
    "iata": null,
    "icao": "CWCT",
    "latitude": 52.04,
    "local": null,
    "longitude": -111.26,
    "name": "CORONATION(AUT)",
    "note": null,
    "reporting": true,
    "state": "AB",
    "type": "weather_station",
    "website": null,
    "wiki": null
  },
  "CWCU": {
    "city": null,
    "country": "CA",
    "elevation_ft": 968,
    "elevation_m": 295,
    "gps": null,
    "iata": null,
    "icao": "CWCU",
    "latitude": 44.22,
    "local": null,
    "longitude": -79.46,
    "name": "BARRIE (MARS)",
    "note": null,
    "reporting": false,
    "state": "ON",
    "type": "weather_station",
    "website": null,
    "wiki": null
  },
  "CWCZ": {
    "city": null,
    "country": "CA",
    "elevation_ft": 69,
    "elevation_m": 21,
    "gps": null,
    "iata": null,
    "icao": "CWCZ",
    "latitude": 51.36,
    "local": null,
    "longitude": -127.52,
    "name": "ADDENBROKE ISL (",
    "note": null,
    "reporting": false,
    "state": "BC",
    "type": "weather_station",
    "website": null,
    "wiki": null
  },
  "CWDA": {
    "city": null,
    "country": "CA",
    "elevation_ft": 98,
    "elevation_m": 30,
    "gps": null,
    "iata": null,
    "icao": "CWDA",
    "latitude": 50.43,
    "local": null,
    "longitude": -56.07,
    "name": "ENGLEE (MAPS)",
    "note": null,
    "reporting": true,
    "state": "NL",
    "type": "weather_station",
    "website": null,
    "wiki": null
  },
  "CWDC": {
    "city": null,
    "country": "CA",
    "elevation_ft": 1020,
    "elevation_m": 311,
    "gps": null,
    "iata": null,
    "icao": "CWDC",
    "latitude": 59.34,
    "local": null,
    "longitude": -108.29,
    "name": "URANIUM CITY(MAR",
    "note": null,
    "reporting": true,
    "state": "SK",
    "type": "weather_station",
    "website": null,
    "wiki": null
  },
  "CWDD": {
    "city": null,
    "country": "CA",
    "elevation_ft": 604,
    "elevation_m": 184,
    "gps": null,
    "iata": null,
    "icao": "CWDD",
    "latitude": 42.17,
    "local": null,
    "longitude": -82.42,
    "name": "BELLE RIVER AUT0",
    "note": null,
    "reporting": false,
    "state": "ON",
    "type": "weather_station",
    "website": null,
    "wiki": null
  },
  "CWDF": {
    "city": null,
    "country": "CA",
    "elevation_ft": 597,
    "elevation_m": 182,
    "gps": null,
    "iata": null,
    "icao": "CWDF",
    "latitude": 44.43,
    "local": null,
    "longitude": -81.16,
    "name": "OLIPHANT (AUTOB)",
    "note": null,
    "reporting": false,
    "state": "ON",
    "type": "weather_station",
    "website": null,
    "wiki": null
  },
  "CWDH": {
    "city": null,
    "country": "CA",
    "elevation_ft": 62,
    "elevation_m": 19,
    "gps": null,
    "iata": null,
    "icao": "CWDH",
    "latitude": 50.13,
    "local": null,
    "longitude": -57.34,
    "name": "DANIEL'S HARBOUR",
    "note": null,
    "reporting": false,
    "state": "NL",
    "type": "weather_station",
    "website": null,
    "wiki": null
  },
  "CWDI": {
    "city": null,
    "country": "CA",
    "elevation_ft": 344,
    "elevation_m": 105,
    "gps": null,
    "iata": null,
    "icao": "CWDI",
    "latitude": 48.58,
    "local": null,
    "longitude": -56.04,
    "name": "BADGER (MARS)",
    "note": null,
    "reporting": false,
    "state": "NL",
    "type": "weather_station",
    "website": null,
    "wiki": null
  },
  "CWDJ": {
    "city": null,
    "country": "CA",
    "elevation_ft": 1890,
    "elevation_m": 576,
    "gps": null,
    "iata": null,
    "icao": "CWDJ",
    "latitude": 50.24,
    "local": null,
    "longitude": -104.35,
    "name": "REGINA UNIVERSIT",
    "note": null,
    "reporting": true,
    "state": "SK",
    "type": "weather_station",
    "website": null,
    "wiki": null
  },
  "CWDK": {
    "city": null,
    "country": "CA",
    "elevation_ft": 3327,
    "elevation_m": 1014,
    "gps": null,
    "iata": null,
    "icao": "CWDK",
    "latitude": 50.01,
    "local": null,
    "longitude": -113.37,
    "name": "CLARESHOLM (AUTO",
    "note": null,
    "reporting": true,
    "state": "AB",
    "type": "weather_station",
    "website": null,
    "wiki": null
  },
  "CWDL": {
    "city": null,
    "country": "CA",
    "elevation_ft": 2677,
    "elevation_m": 816,
    "gps": null,
    "iata": null,
    "icao": "CWDL",
    "latitude": 58.26,
    "local": null,
    "longitude": -130.01,
    "name": "DEASE LAKE",
    "note": null,
    "reporting": false,
    "state": "BC",
    "type": "weather_station",
    "website": null,
    "wiki": null
  },
  "CWDM": {
    "city": null,
    "country": "CA",
    "elevation_ft": 7,
    "elevation_m": 2,
    "gps": null,
    "iata": null,
    "icao": "CWDM",
    "latitude": 50.28,
    "local": null,
    "longitude": -59.38,
    "name": "CHEVERY (MARS)",
    "note": null,
    "reporting": true,
    "state": "QC",
    "type": "weather_station",
    "website": null,
    "wiki": null
  },
  "CWDO": {
    "city": null,
    "country": "CA",
    "elevation_ft": 292,
    "elevation_m": 89,
    "gps": null,
    "iata": null,
    "icao": "CWDO",
    "latitude": 49.41,
    "local": null,
    "longitude": -54.47,
    "name": "TWILLINGATE (MAP",
    "note": null,
    "reporting": true,
    "state": "NL",
    "type": "weather_station",
    "website": null,
    "wiki": null
  },
  "CWDQ": {
    "city": null,
    "country": "CA",
    "elevation_ft": 571,
    "elevation_m": 174,
    "gps": null,
    "iata": null,
    "icao": "CWDQ",
    "latitude": 47.25,
    "local": null,
    "longitude": -72.47,
    "name": "LA TUQUE",
    "note": null,
    "reporting": true,
    "state": "QC",
    "type": "weather_station",
    "website": null,
    "wiki": null
  },
  "CWDR": {
    "city": null,
    "country": "CA",
    "elevation_ft": 56,
    "elevation_m": 17,
    "gps": null,
    "iata": null,
    "icao": "CWDR",
    "latitude": 48.25,
    "local": null,
    "longitude": -123.14,
    "name": "DISCOVERY ISLAND",
    "note": null,
    "reporting": false,
    "state": "BC",
    "type": "weather_station",
    "website": null,
    "wiki": null
  },
  "CWDT": {
    "city": null,
    "country": "CA",
    "elevation_ft": 1276,
    "elevation_m": 389,
    "gps": null,
    "iata": null,
    "icao": "CWDT",
    "latitude": 49.5,
    "local": null,
    "longitude": -71.1,
    "name": "CHUTE DES PASSES",
    "note": null,
    "reporting": true,
    "state": "QC",
    "type": "weather_station",
    "website": null,
    "wiki": null
  },
  "CWDV": {
    "city": null,
    "country": "CA",
    "elevation_ft": 1598,
    "elevation_m": 487,
    "gps": null,
    "iata": null,
    "icao": "CWDV",
    "latitude": 49.01,
    "local": null,
    "longitude": -90.28,
    "name": "UPSALA (MARS)",
    "note": null,
    "reporting": true,
    "state": "ON",
    "type": "weather_station",
    "website": null,
    "wiki": null
  },
  "CWDW": {
    "city": null,
    "country": "CA",
    "elevation_ft": 95,
    "elevation_m": 29,
    "gps": null,
    "iata": null,
    "icao": "CWDW",
    "latitude": 51.23,
    "local": null,
    "longitude": -56.06,
    "name": "SAINT ANTHONY",
    "note": null,
    "reporting": false,
    "state": "NL",
    "type": "weather_station",
    "website": null,
    "wiki": null
  },
  "CWDZ": {
    "city": null,
    "country": "CA",
    "elevation_ft": 2260,
    "elevation_m": 689,
    "gps": null,
    "iata": null,
    "icao": "CWDZ",
    "latitude": 51.26,
    "local": null,
    "longitude": -112.4,
    "name": "DRUMHELLER EAST",
    "note": null,
    "reporting": true,
    "state": "AB",
    "type": "weather_station",
    "website": null,
    "wiki": null
  },
  "CWEB": {
    "city": null,
    "country": "CA",
    "elevation_ft": 3,
    "elevation_m": 1,
    "gps": null,
    "iata": null,
    "icao": "CWEB",
    "latitude": 49.23,
    "local": null,
    "longitude": -126.33,
    "name": "ESTEVAN PT. (MAR",
    "note": null,
    "reporting": true,
    "state": "BC",
    "type": "weather_station",
    "website": null,
    "wiki": null
  },
  "CWEC": {
    "city": null,
    "country": "CA",
    "elevation_ft": 686,
    "elevation_m": 209,
    "gps": null,
    "iata": null,
    "icao": "CWEC",
    "latitude": 48.22,
    "local": null,
    "longitude": -89.07,
    "name": "WELCOME ISLAND",
    "note": null,
    "reporting": false,
    "state": "ON",
    "type": "weather_station",
    "website": null,
    "wiki": null
  },
  "CWEE": {
    "city": null,
    "country": "CA",
    "elevation_ft": 991,
    "elevation_m": 302,
    "gps": null,
    "iata": null,
    "icao": "CWEE",
    "latitude": 49.16,
    "local": null,
    "longitude": -73.21,
    "name": "CHAMOUCHOUANE AU",
    "note": null,
    "reporting": true,
    "state": "QC",
    "type": "weather_station",
    "website": null,
    "wiki": null
  },
  "CWEF": {
    "city": null,
    "country": "CA",
    "elevation_ft": 89,
    "elevation_m": 27,
    "gps": null,
    "iata": null,
    "icao": "CWEF",
    "latitude": 47.13,
    "local": null,
    "longitude": -60.08,
    "name": "ST. PAUL ISL(MAP",
    "note": null,
    "reporting": true,
    "state": "NS",
    "type": "weather_station",
    "website": null,
    "wiki": null
  },
  "CWEH": {
    "city": null,
    "country": "CA",
    "elevation_ft": 3533,
    "elevation_m": 1077,
    "gps": null,
    "iata": null,
    "icao": "CWEH",
    "latitude": 49.26,
    "local": null,
    "longitude": -108.59,
    "name": "EASTEND CYPRESS",
    "note": null,
    "reporting": true,
    "state": "SK",
    "type": "weather_station",
    "website": null,
    "wiki": null
  },
  "CWEI": {
    "city": null,
    "country": "CA",
    "elevation_ft": 1463,
    "elevation_m": 446,
    "gps": null,
    "iata": null,
    "icao": "CWEI",
    "latitude": 49.17,
    "local": null,
    "longitude": -100.59,
    "name": "MELITA",
    "note": null,
    "reporting": false,
    "state": "MB",
    "type": "weather_station",
    "website": null,
    "wiki": null
  },
  "CWEK": {
    "city": null,
    "country": "CA",
    "elevation_ft": 26,
    "elevation_m": 8,
    "gps": null,
    "iata": null,
    "icao": "CWEK",
    "latitude": 54.35,
    "local": null,
    "longitude": -130.42,
    "name": "GREY ISLET (MAPS",
    "note": null,
    "reporting": true,
    "state": "BC",
    "type": "weather_station",
    "website": null,
    "wiki": null
  },
  "CWEL": {
    "city": null,
    "country": "CA",
    "elevation_ft": 0,
    "elevation_m": 0,
    "gps": null,
    "iata": null,
    "icao": "CWEL",
    "latitude": 49.13,
    "local": null,
    "longitude": -123.48,
    "name": "ENTRANCE IL AUTO",
    "note": null,
    "reporting": true,
    "state": "BC",
    "type": "weather_station",
    "website": null,
    "wiki": null
  },
  "CWEM": {
    "city": null,
    "country": "CA",
    "elevation_ft": 46,
    "elevation_m": 14,
    "gps": null,
    "iata": null,
    "icao": "CWEM",
    "latitude": 51.15,
    "local": null,
    "longitude": -127.5,
    "name": "EGG ISLAND",
    "note": null,
    "reporting": false,
    "state": "BC",
    "type": "weather_station",
    "website": null,
    "wiki": null
  },
  "CWEO": {
    "city": null,
    "country": "CA",
    "elevation_ft": 1841,
    "elevation_m": 561,
    "gps": null,
    "iata": null,
    "icao": "CWEO",
    "latitude": 51.52,
    "local": null,
    "longitude": -63.16,
    "name": "LAC EON (MAPS)",
    "note": null,
    "reporting": false,
    "state": "QC",
    "type": "weather_station",
    "website": null,
    "wiki": null
  },
  "CWEP": {
    "city": null,
    "country": "CA",
    "elevation_ft": 30,
    "elevation_m": 9,
    "gps": null,
    "iata": null,
    "icao": "CWEP",
    "latitude": 46.27,
    "local": null,
    "longitude": -61.59,
    "name": "EAST POINT (MARS",
    "note": null,
    "reporting": true,
    "state": "PE",
    "type": "weather_station",
    "website": null,
    "wiki": null
  },
  "CWEQ": {
    "city": null,
    "country": "CA",
    "elevation_ft": 1086,
    "elevation_m": 331,
    "gps": null,
    "iata": null,
    "icao": "CWEQ",
    "latitude": 52.07,
    "local": null,
    "longitude": -101.13,
    "name": "SWAN RIVER (MARS",
    "note": null,
    "reporting": true,
    "state": "MB",
    "type": "weather_station",
    "website": null,
    "wiki": null
  },
  "CWER": {
    "city": null,
    "country": "CA",
    "elevation_ft": 13,
    "elevation_m": 4,
    "gps": null,
    "iata": null,
    "icao": "CWER",
    "latitude": 47.0,
    "local": null,
    "longitude": -70.49,
    "name": "ILE D'ORLEANS(AU",
    "note": null,
    "reporting": true,
    "state": "QC",
    "type": "weather_station",
    "website": null,
    "wiki": null
  },
  "CWES": {
    "city": null,
    "country": "CA",
    "elevation_ft": 236,
    "elevation_m": 72,
    "gps": null,
    "iata": null,
    "icao": "CWES",
    "latitude": 50.46,
    "local": null,
    "longitude": -128.25,
    "name": "CAPE SCOTT (LGT",
    "note": null,
    "reporting": false,
    "state": "BC",
    "type": "weather_station",
    "website": null,
    "wiki": null
  },
  "CWET": {
    "city": null,
    "country": "CA",
    "elevation_ft": 823,
    "elevation_m": 251,
    "gps": null,
    "iata": null,
    "icao": "CWET",
    "latitude": 44.14,
    "local": null,
    "longitude": -79.47,
    "name": "EGBERT (MAPS)",
    "note": null,
    "reporting": false,
    "state": "ON",
    "type": "weather_station",
    "website": null,
    "wiki": null
  },
  "CWEU": {
    "city": null,
    "country": "CA",
    "elevation_ft": 7,
    "elevation_m": 2,
    "gps": null,
    "iata": null,
    "icao": "CWEU",
    "latitude": 80.0,
    "local": null,
    "longitude": -85.56,
    "name": "EUREKA",
    "note": null,
    "reporting": true,
    "state": "NU",
    "type": "weather_station",
    "website": null,
    "wiki": null
  },
  "CWEW": {
    "city": null,
    "country": "CA",
    "elevation_ft": 56,
    "elevation_m": 17,
    "gps": null,
    "iata": null,
    "icao": "CWEW",
    "latitude": 45.49,
    "local": null,
    "longitude": -73.26,
    "name": "L'ASSOMPTION",
    "note": null,
    "reporting": true,
    "state": "QC",
    "type": "weather_station",
    "website": null,
    "wiki": null
  },
  "CWEX": {
    "city": null,
    "country": "CA",
    "elevation_ft": 794,
    "elevation_m": 242,
    "gps": null,
    "iata": null,
    "icao": "CWEX",
    "latitude": 49.0,
    "local": null,
    "longitude": -97.14,
    "name": "EMERSON",
    "note": null,
    "reporting": false,
    "state": "MB",
    "type": "weather_station",
    "website": null,
    "wiki": null
  },
  "CWEZ": {
    "city": null,
    "country": "CA",
    "elevation_ft": 75,
    "elevation_m": 23,
    "gps": null,
    "iata": null,
    "icao": "CWEZ",
    "latitude": 48.47,
    "local": null,
    "longitude": -123.03,
    "name": "SATURNA ISL (MAP",
    "note": null,
    "reporting": true,
    "state": "BC",
    "type": "weather_station",
    "website": null,
    "wiki": null
  },
  "CWFD": {
    "city": null,
    "country": "CA",
    "elevation_ft": 1230,
    "elevation_m": 375,
    "gps": null,
    "iata": null,
    "icao": "CWFD",
    "latitude": 66.35,
    "local": null,
    "longitude": -61.35,
    "name": "CAPE DYER AIRPOR",
    "note": null,
    "reporting": true,
    "state": "NU",
    "type": "weather_station",
    "website": null,
    "wiki": null
  },
  "CWFF": {
    "city": null,
    "country": "CA",
    "elevation_ft": 1581,
    "elevation_m": 482,
    "gps": null,
    "iata": null,
    "icao": "CWFF",
    "latitude": 52.49,
    "local": null,
    "longitude": -104.36,
    "name": "MELFORT (AUTOB)",
    "note": null,
    "reporting": true,
    "state": "SK",
    "type": "weather_station",
    "website": null,
    "wiki": null
  },
  "CWFG": {
    "city": null,
    "country": "CA",
    "elevation_ft": 364,
    "elevation_m": 111,
    "gps": null,
    "iata": null,
    "icao": "CWFG",
    "latitude": 50.49,
    "local": null,
    "longitude": -128.54,
    "name": "SARTINE ISL (MAP",
    "note": null,
    "reporting": false,
    "state": "BC",
    "type": "weather_station",
    "website": null,
    "wiki": null
  },
  "CWFJ": {
    "city": null,
    "country": "CA",
    "elevation_ft": 3747,
    "elevation_m": 1142,
    "gps": null,
    "iata": null,
    "icao": "CWFJ",
    "latitude": 49.12,
    "local": null,
    "longitude": -113.16,
    "name": "CARDSTON (AUT)",
    "note": null,
    "reporting": true,
    "state": "AB",
    "type": "weather_station",
    "website": null,
    "wiki": null
  },
  "CWFQ": {
    "city": null,
    "country": "CA",
    "elevation_ft": 623,
    "elevation_m": 190,
    "gps": null,
    "iata": null,
    "icao": "CWFQ",
    "latitude": 45.02,
    "local": null,
    "longitude": -72.51,
    "name": "FRELIGHSBURG",
    "note": null,
    "reporting": true,
    "state": "QC",
    "type": "weather_station",
    "website": null,
    "wiki": null
  },
  "CWFR": {
    "city": null,
    "country": "CA",
    "elevation_ft": 2776,
    "elevation_m": 846,
    "gps": null,
    "iata": null,
    "icao": "CWFR",
    "latitude": 52.16,
    "local": null,
    "longitude": -121.02,
    "name": "HORSEFLY RIVER",
    "note": null,
    "reporting": false,
    "state": "BC",
    "type": "weather_station",
    "website": null,
    "wiki": null
  },
  "CWGB": {
    "city": null,
    "country": "CA",
    "elevation_ft": 20,
    "elevation_m": 6,
    "gps": null,
    "iata": null,
    "icao": "CWGB",
    "latitude": 49.21,
    "local": null,
    "longitude": -124.08,
    "name": "BALLENAS IL AUTO",
    "note": null,
    "reporting": true,
    "state": "BC",
    "type": "weather_station",
    "website": null,
    "wiki": null
  },
  "CWGD": {
    "city": null,
    "country": "CA",
    "elevation_ft": 702,
    "elevation_m": 214,
    "gps": null,
    "iata": null,
    "icao": "CWGD",
    "latitude": 43.46,
    "local": null,
    "longitude": -81.43,
    "name": "GODERICH (AUTOB)",
    "note": null,
    "reporting": true,
    "state": "ON",
    "type": "weather_station",
    "website": null,
    "wiki": null
  },
  "CWGH": {
    "city": null,
    "country": "CA",
    "elevation_ft": 249,
    "elevation_m": 76,
    "gps": null,
    "iata": null,
    "icao": "CWGH",
    "latitude": 44.25,
    "local": null,
    "longitude": -75.51,
    "name": "GRENADIER ISLAND",
    "note": null,
    "reporting": true,
    "state": "ON",
    "type": "weather_station",
    "website": null,
    "wiki": null
  },
  "CWGL": {
    "city": null,
    "country": "CA",
    "elevation_ft": 722,
    "elevation_m": 220,
    "gps": null,
    "iata": null,
    "icao": "CWGL",
    "latitude": 44.32,
    "local": null,
    "longitude": -79.13,
    "name": "LAGOON CITY",
    "note": null,
    "reporting": true,
    "state": "ON",
    "type": "weather_station",
    "website": null,
    "wiki": null
  },
  "CWGM": {
    "city": null,
    "country": "CA",
    "elevation_ft": 4239,
    "elevation_m": 1292,
    "gps": null,
    "iata": null,
    "icao": "CWGM",
    "latitude": 49.08,
    "local": null,
    "longitude": -113.48,
    "name": "WATERTON PARK GA",
    "note": null,
    "reporting": true,
    "state": "AB",
    "type": "weather_station",
    "website": null,
    "wiki": null
  },
  "CWGN": {
    "city": null,
    "country": "CA",
    "elevation_ft": 823,
    "elevation_m": 251,
    "gps": null,
    "iata": null,
    "icao": "CWGN",
    "latitude": 49.01,
    "local": null,
    "longitude": -97.34,
    "name": "GRETNA (MARS)",
    "note": null,
    "reporting": false,
    "state": "MB",
    "type": "weather_station",
    "website": null,
    "wiki": null
  },
  "CWGQ": {
    "city": null,
    "country": "CA",
    "elevation_ft": 883,
    "elevation_m": 269,
    "gps": null,
    "iata": null,
    "icao": "CWGQ",
    "latitude": 48.37,
    "local": null,
    "longitude": -79.27,
    "name": "ROQUEMAURE",
    "note": null,
    "reporting": false,
    "state": "ON",
    "type": "weather_station",
    "website": null,
    "wiki": null
  },
  "CWGR": {
    "city": null,
    "country": "CA",
    "elevation_ft": 13,
    "elevation_m": 4,
    "gps": null,
    "iata": null,
    "icao": "CWGR",
    "latitude": 47.25,
    "local": null,
    "longitude": -61.46,
    "name": "ILES-DE-LA-MADEL",
    "note": null,
    "reporting": true,
    "state": "QC",
    "type": "weather_station",
    "website": null,
    "wiki": null
  },
  "CWGT": {
    "city": null,
    "country": "CA",
    "elevation_ft": 16,
    "elevation_m": 5,
    "gps": null,
    "iata": null,
    "icao": "CWGT",
    "latitude": 49.29,
    "local": null,
    "longitude": -124.26,
    "name": "SISTERS IL AUTOB",
    "note": null,
    "reporting": true,
    "state": "BC",
    "type": "weather_station",
    "website": null,
    "wiki": null
  },
  "CWGU": {
    "city": null,
    "country": "CA",
    "elevation_ft": 394,
    "elevation_m": 120,
    "gps": null,
    "iata": null,
    "icao": "CWGU",
    "latitude": 45.52,
    "local": null,
    "longitude": -61.54,
    "name": "CAPE GEORGE (AUT",
    "note": null,
    "reporting": false,
    "state": "NS",
    "type": "weather_station",
    "website": null,
    "wiki": null
  },
  "CWGW": {
    "city": null,
    "country": "CA",
    "elevation_ft": 3730,
    "elevation_m": 1137,
    "gps": null,
    "iata": null,
    "icao": "CWGW",
    "latitude": 49.45,
    "local": null,
    "longitude": -114.54,
    "name": "SPARWOOD (AUTOB)",
    "note": null,
    "reporting": true,
    "state": "BC",
    "type": "weather_station",
    "website": null,
    "wiki": null
  },
  "CWGX": {
    "city": null,
    "country": "CA",
    "elevation_ft": 476,
    "elevation_m": 145,
    "gps": null,
    "iata": null,
    "icao": "CWGX",
    "latitude": 56.21,
    "local": null,
    "longitude": -94.42,
    "name": "GILLAM AIRPORT",
    "note": null,
    "reporting": true,
    "state": "MB",
    "type": "weather_station",
    "website": null,
    "wiki": null
  },
  "CWGY": {
    "city": null,
    "country": "CA",
    "elevation_ft": 2326,
    "elevation_m": 709,
    "gps": null,
    "iata": null,
    "icao": "CWGY",
    "latitude": 51.4,
    "local": null,
    "longitude": -110.12,
    "name": "ESTHER 1",
    "note": null,
    "reporting": true,
    "state": "AB",
    "type": "weather_station",
    "website": null,
    "wiki": null
  },
  "CWGZ": {
    "city": null,
    "country": "CA",
    "elevation_ft": 79,
    "elevation_m": 24,
    "gps": null,
    "iata": null,
    "icao": "CWGZ",
    "latitude": 76.25,
    "local": null,
    "longitude": -82.54,
    "name": "GRISE FIORD AIR",
    "note": null,
    "reporting": true,
    "state": "NU",
    "type": "weather_station",
    "website": null,
    "wiki": null
  },
  "CWHA": {
    "city": null,
    "country": "CA",
    "elevation_ft": 2451,
    "elevation_m": 747,
    "gps": null,
    "iata": null,
    "icao": "CWHA",
    "latitude": 53.27,
    "local": null,
    "longitude": -114.28,
    "name": "HIGHVALE",
    "note": null,
    "reporting": false,
    "state": "AB",
    "type": "weather_station",
    "website": null,
    "wiki": null
  },
  "CWHC": {
    "city": null,
    "country": "CA",
    "elevation_ft": 7,
    "elevation_m": 2,
    "gps": null,
    "iata": null,
    "icao": "CWHC",
    "latitude": 49.17,
    "local": null,
    "longitude": -123.07,
    "name": "VANCOUVER (AUTOB",
    "note": null,
    "reporting": false,
    "state": "BC",
    "type": "weather_station",
    "website": null,
    "wiki": null
  },
  "CWHH": {
    "city": null,
    "country": "CA",
    "elevation_ft": 840,
    "elevation_m": 256,
    "gps": null,
    "iata": null,
    "icao": "CWHH",
    "latitude": 53.02,
    "local": null,
    "longitude": -100.56,
    "name": "HUNTERS POINT MA",
    "note": null,
    "reporting": false,
    "state": "MB",
    "type": "weather_station",
    "website": null,
    "wiki": null
  },
  "CWHI": {
    "city": null,
    "country": "CA",
    "elevation_ft": 2972,
    "elevation_m": 906,
    "gps": null,
    "iata": null,
    "icao": "CWHI",
    "latitude": 51.42,
    "local": null,
    "longitude": -113.13,
    "name": "THREE HILLS",
    "note": null,
    "reporting": true,
    "state": "AB",
    "type": "weather_station",
    "website": null,
    "wiki": null
  },
  "CWHL": {
    "city": null,
    "country": "CA",
    "elevation_ft": 16,
    "elevation_m": 5,
    "gps": null,
    "iata": null,
    "icao": "CWHL",
    "latitude": 54.1,
    "local": null,
    "longitude": -130.21,
    "name": "HOLLAND ROCK(AUT",
    "note": null,
    "reporting": true,
    "state": "BC",
    "type": "weather_station",
    "website": null,
    "wiki": null
  },
  "CWHM": {
    "city": null,
    "country": "CA",
    "elevation_ft": 66,
    "elevation_m": 20,
    "gps": null,
    "iata": null,
    "icao": "CWHM",
    "latitude": 45.43,
    "local": null,
    "longitude": -73.22,
    "name": "VARENNES",
    "note": null,
    "reporting": false,
    "state": "QC",
    "type": "weather_station",
    "website": null,
    "wiki": null
  },
  "CWHN": {
    "city": null,
    "country": "CA",
    "elevation_ft": 2083,
    "elevation_m": 635,
    "gps": null,
    "iata": null,
    "icao": "CWHN",
    "latitude": 54.54,
    "local": null,
    "longitude": -109.58,
    "name": "JIMMY LAKE",
    "note": null,
    "reporting": true,
    "state": "SK",
    "type": "weather_station",
    "website": null,
    "wiki": null
  },
  "CWHO": {
    "city": null,
    "country": "CA",
    "elevation_ft": 52,
    "elevation_m": 16,
    "gps": null,
    "iata": null,
    "icao": "CWHO",
    "latitude": 55.27,
    "local": null,
    "longitude": -60.13,
    "name": "HOPEDALE (MAPS)",
    "note": null,
    "reporting": true,
    "state": "NL",
    "type": "weather_station",
    "website": null,
    "wiki": null
  },
  "CWHP": {
    "city": null,
    "country": "CA",
    "elevation_ft": 23,
    "elevation_m": 7,
    "gps": null,
    "iata": null,
    "icao": "CWHP",
    "latitude": 49.05,
    "local": null,
    "longitude": -61.42,
    "name": "HEATH POINT (MAP",
    "note": null,
    "reporting": true,
    "state": "QC",
    "type": "weather_station",
    "website": null,
    "wiki": null
  },
  "CWHQ": {
    "city": null,
    "country": "CA",
    "elevation_ft": 184,
    "elevation_m": 56,
    "gps": null,
    "iata": null,
    "icao": "CWHQ",
    "latitude": 46.41,
    "local": null,
    "longitude": -71.58,
    "name": "DESCHAMBAULTS",
    "note": null,
    "reporting": true,
    "state": "QC",
    "type": "weather_station",
    "website": null,
    "wiki": null
  },
  "CWHT": {
    "city": null,
    "country": "CA",
    "elevation_ft": 1972,
    "elevation_m": 601,
    "gps": null,
    "iata": null,
    "icao": "CWHT",
    "latitude": 60.46,
    "local": null,
    "longitude": -137.35,
    "name": "HAINES JUNCTION",
    "note": null,
    "reporting": true,
    "state": "YT",
    "type": "weather_station",
    "website": null,
    "wiki": null
  },
  "CWHV": {
    "city": null,
    "country": "CA",
    "elevation_ft": 745,
    "elevation_m": 227,
    "gps": null,
    "iata": null,
    "icao": "CWHV",
    "latitude": 46.12,
    "local": null,
    "longitude": -70.47,
    "name": "BEAUCEVILLE",
    "note": null,
    "reporting": true,
    "state": "QC",
    "type": "weather_station",
    "website": null,
    "wiki": null
  },
  "CWHY": {
    "city": null,
    "country": "CA",
    "elevation_ft": 2792,
    "elevation_m": 851,
    "gps": null,
    "iata": null,
    "icao": "CWHY",
    "latitude": 45.19,
    "local": null,
    "longitude": -72.15,
    "name": "MONT ORFORD",
    "note": null,
    "reporting": false,
    "state": "QC",
    "type": "weather_station",
    "website": null,
    "wiki": null
  },
  "CWIA": {
    "city": null,
    "country": "CA",
    "elevation_ft": 338,
    "elevation_m": 103,
    "gps": null,
    "iata": null,
    "icao": "CWIA",
    "latitude": 48.39,
    "local": null,
    "longitude": -71.51,
    "name": "ST HENRI",
    "note": null,
    "reporting": false,
    "state": "QC",
    "type": "weather_station",
    "website": null,
    "wiki": null
  },
  "CWIC": {
    "city": null,
    "country": "CA",
    "elevation_ft": 190,
    "elevation_m": 58,
    "gps": null,
    "iata": null,
    "icao": "CWIC",
    "latitude": 78.47,
    "local": null,
    "longitude": -103.33,
    "name": "ISACHSEN (MAPS)",
    "note": null,
    "reporting": false,
    "state": "NU",
    "type": "weather_station",
    "website": null,
    "wiki": null
  },
  "CWID": {
    "city": null,
    "country": "CA",
    "elevation_ft": 525,
    "elevation_m": 160,
    "gps": null,
    "iata": null,
    "icao": "CWID",
    "latitude": 61.19,
    "local": null,
    "longitude": -117.36,
    "name": "FORT PROVIDENCE",
    "note": null,
    "reporting": true,
    "state": "NT",
    "type": "weather_station",
    "website": null,
    "wiki": null
  },
  "CWIE": {
    "city": null,
    "country": "CA",
    "elevation_ft": 1568,
    "elevation_m": 478,
    "gps": null,
    "iata": null,
    "icao": "CWIE",
    "latitude": 64.23,
    "local": null,
    "longitude": -115.01,
    "name": "INDIAN RIVER",
    "note": null,
    "reporting": false,
    "state": "NT",
    "type": "weather_station",
    "website": null,
    "wiki": null
  },
  "CWIG": {
    "city": null,
    "country": "CA",
    "elevation_ft": 39,
    "elevation_m": 12,
    "gps": null,
    "iata": null,
    "icao": "CWIG",
    "latitude": 47.04,
    "local": null,
    "longitude": -70.32,
    "name": "ICE AUX GRUES",
    "note": null,
    "reporting": true,
    "state": "QC",
    "type": "weather_station",
    "website": null,
    "wiki": null
  },
  "CWII": {
    "city": null,
    "country": "CA",
    "elevation_ft": 709,
    "elevation_m": 216,
    "gps": null,
    "iata": null,
    "icao": "CWII",
    "latitude": 50.42,
    "local": null,
    "longitude": -96.34,
    "name": "VICTORIA BEACH",
    "note": null,
    "reporting": true,
    "state": "MB",
    "type": "weather_station",
    "website": null,
    "wiki": null
  },
  "CWIJ": {
    "city": null,
    "country": "CA",
    "elevation_ft": 1608,
    "elevation_m": 490,
    "gps": null,
    "iata": null,
    "icao": "CWIJ",
    "latitude": 65.46,
    "local": null,
    "longitude": -111.14,
    "name": "LUPIN (MAPS)",
    "note": null,
    "reporting": true,
    "state": "NU",
    "type": "weather_station",
    "website": null,
    "wiki": null
  },
  "CWIK": {
    "city": null,
    "country": "CA",
    "elevation_ft": 1959,
    "elevation_m": 597,
    "gps": null,
    "iata": null,
    "icao": "CWIK",
    "latitude": 50.22,
    "local": null,
    "longitude": -102.35,
    "name": "BROADVIEW",
    "note": null,
    "reporting": true,
    "state": "SK",
    "type": "weather_station",
    "website": null,
    "wiki": null
  },
  "CWIL": {
    "city": null,
    "country": "CA",
    "elevation_ft": 92,
    "elevation_m": 28,
    "gps": null,
    "iata": null,
    "icao": "CWIL",
    "latitude": 68.19,
    "local": null,
    "longitude": -100.04,
    "name": "HAT ISLAND",
    "note": null,
    "reporting": true,
    "state": "NU",
    "type": "weather_station",
    "website": null,
    "wiki": null
  },
  "CWIO": {
    "city": null,
    "country": "CA",
    "elevation_ft": 49,
    "elevation_m": 15,
    "gps": null,
    "iata": null,
    "icao": "CWIO",
    "latitude": 56.43,
    "local": null,
    "longitude": -131.4,
    "name": "ISKUT RIVER(AUTO",
    "note": null,
    "reporting": false,
    "state": "BC",
    "type": "weather_station",
    "website": null,
    "wiki": null
  },
  "CWIP": {
    "city": null,
    "country": "CA",
    "elevation_ft": 89,
    "elevation_m": 27,
    "gps": null,
    "iata": null,
    "icao": "CWIP",
    "latitude": 50.1,
    "local": null,
    "longitude": -66.26,
    "name": "POINTE NOIRES CS",
    "note": null,
    "reporting": true,
    "state": "QC",
    "type": "weather_station",
    "website": null,
    "wiki": null
  },
  "CWIQ": {
    "city": null,
    "country": "CA",
    "elevation_ft": 2303,
    "elevation_m": 702,
    "gps": null,
    "iata": null,
    "icao": "CWIQ",
    "latitude": 54.45,
    "local": null,
    "longitude": -110.02,
    "name": "PRIMROSE LAKE",
    "note": null,
    "reporting": false,
    "state": "AB",
    "type": "weather_station",
    "website": null,
    "wiki": null
  },
  "CWIS": {
    "city": null,
    "country": "CA",
    "elevation_ft": 2362,
    "elevation_m": 720,
    "gps": null,
    "iata": null,
    "icao": "CWIS",
    "latitude": 47.17,
    "local": null,
    "longitude": -70.38,
    "name": "CHARLEVOIX (MRX)",
    "note": null,
    "reporting": true,
    "state": "QC",
    "type": "weather_station",
    "website": null,
    "wiki": null
  },
  "CWIT": {
    "city": null,
    "country": "CA",
    "elevation_ft": 174,
    "elevation_m": 53,
    "gps": null,
    "iata": null,
    "icao": "CWIT",
    "latitude": 45.1,
    "local": null,
    "longitude": -73.4,
    "name": "ST CLOTHILDE (A",
    "note": null,
    "reporting": true,
    "state": "QC",
    "type": "weather_station",
    "website": null,
    "wiki": null
  },
  "CWIU": {
    "city": null,
    "country": "CA",
    "elevation_ft": 1969,
    "elevation_m": 600,
    "gps": null,
    "iata": null,
    "icao": "CWIU",
    "latitude": 48.29,
    "local": null,
    "longitude": -71.47,
    "name": "ST GEDEON",
    "note": null,
    "reporting": false,
    "state": "QC",
    "type": "weather_station",
    "website": null,
    "wiki": null
  },
  "CWIW": {
    "city": null,
    "country": "CA",
    "elevation_ft": 1719,
    "elevation_m": 524,
    "gps": null,
    "iata": null,
    "icao": "CWIW",
    "latitude": 51.4,
    "local": null,
    "longitude": -105.24,
    "name": "WATROUS EAST (AU",
    "note": null,
    "reporting": true,
    "state": "SK",
    "type": "weather_station",
    "website": null,
    "wiki": null
  },
  "CWIX": {
    "city": null,
    "country": "CA",
    "elevation_ft": 358,
    "elevation_m": 109,
    "gps": null,
    "iata": null,
    "icao": "CWIX",
    "latitude": 48.36,
    "local": null,
    "longitude": -71.43,
    "name": "MISTOOK (AUT)",
    "note": null,
    "reporting": true,
    "state": "QC",
    "type": "weather_station",
    "website": null,
    "wiki": null
  },
  "CWIY": {
    "city": null,
    "country": "CA",
    "elevation_ft": 787,
    "elevation_m": 240,
    "gps": null,
    "iata": null,
    "icao": "CWIY",
    "latitude": 47.09,
    "local": null,
    "longitude": -67.49,
    "name": "ST LEONARD AUTOB",
    "note": null,
    "reporting": false,
    "state": "NB",
    "type": "weather_station",
    "website": null,
    "wiki": null
  },
  "CWIZ": {
    "city": null,
    "country": "CA",
    "elevation_ft": 148,
    "elevation_m": 45,
    "gps": null,
    "iata": null,
    "icao": "CWIZ",
    "latitude": 45.17,
    "local": null,
    "longitude": -73.2,
    "name": "L'ACADIE",
    "note": null,
    "reporting": true,
    "state": "QC",
    "type": "weather_station",
    "website": null,
    "wiki": null
  },
  "CWJB": {
    "city": null,
    "country": "CA",
    "elevation_ft": 295,
    "elevation_m": 90,
    "gps": null,
    "iata": null,
    "icao": "CWJB",
    "latitude": 46.47,
    "local": null,
    "longitude": -71.17,
    "name": "ST FOY/U LAVAL",
    "note": null,
    "reporting": true,
    "state": "QC",
    "type": "weather_station",
    "website": null,
    "wiki": null
  },
  "CWJD": {
    "city": null,
    "country": "CA",
    "elevation_ft": 728,
    "elevation_m": 222,
    "gps": null,
    "iata": null,
    "icao": "CWJD",
    "latitude": 53.11,
    "local": null,
    "longitude": -99.16,
    "name": "GRAND RAPIDS (MA",
    "note": null,
    "reporting": true,
    "state": "MB",
    "type": "weather_station",
    "website": null,
    "wiki": null
  },
  "CWJG": {
    "city": null,
    "country": "CA",
    "elevation_ft": 33,
    "elevation_m": 10,
    "gps": null,
    "iata": null,
    "icao": "CWJG",
    "latitude": 52.16,
    "local": null,
    "longitude": -128.25,
    "name": "IVORY ISLAND",
    "note": null,
    "reporting": false,
    "state": "BC",
    "type": "weather_station",
    "website": null,
    "wiki": null
  },
  "CWJH": {
    "city": null,
    "country": "CA",
    "elevation_ft": 1132,
    "elevation_m": 345,
    "gps": null,
    "iata": null,
    "icao": "CWJH",
    "latitude": 56.19,
    "local": null,
    "longitude": -103.16,
    "name": "SOUTHEND (AUTOB)",
    "note": null,
    "reporting": true,
    "state": "SK",
    "type": "weather_station",
    "website": null,
    "wiki": null
  },
  "CWJI": {
    "city": null,
    "country": "CA",
    "elevation_ft": 2375,
    "elevation_m": 724,
    "gps": null,
    "iata": null,
    "icao": "CWJI",
    "latitude": 49.43,
    "local": null,
    "longitude": -105.56,
    "name": "ASSINIBOIA ARPT",
    "note": null,
    "reporting": true,
    "state": "SK",
    "type": "weather_station",
    "website": null,
    "wiki": null
  },
  "CWJM": {
    "city": null,
    "country": "CA",
    "elevation_ft": 410,
    "elevation_m": 125,
    "gps": null,
    "iata": null,
    "icao": "CWJM",
    "latitude": 44.42,
    "local": null,
    "longitude": -76.17,
    "name": "UPPER RIDEAU LAK",
    "note": null,
    "reporting": false,
    "state": "ON",
    "type": "weather_station",
    "website": null,
    "wiki": null
  },
  "CWJN": {
    "city": null,
    "country": "CA",
    "elevation_ft": 3,
    "elevation_m": 1,
    "gps": null,
    "iata": null,
    "icao": "CWJN",
    "latitude": 69.34,
    "local": null,
    "longitude": -138.55,
    "name": "HERSCHEL ISLAND",
    "note": null,
    "reporting": false,
    "state": "YT",
    "type": "weather_station",
    "website": null,
    "wiki": null
  },
  "CWJO": {
    "city": null,
    "country": "CA",
    "elevation_ft": 371,
    "elevation_m": 113,
    "gps": null,
    "iata": null,
    "icao": "CWJO",
    "latitude": 48.26,
    "local": null,
    "longitude": -71.09,
    "name": "JONQUIERE(AUTO)",
    "note": null,
    "reporting": true,
    "state": "QC",
    "type": "weather_station",
    "website": null,
    "wiki": null
  },
  "CWJR": {
    "city": null,
    "country": "CA",
    "elevation_ft": 2106,
    "elevation_m": 642,
    "gps": null,
    "iata": null,
    "icao": "CWJR",
    "latitude": 49.02,
    "local": null,
    "longitude": -116.3,
    "name": "CRESTON (AUTOB)",
    "note": null,
    "reporting": true,
    "state": "BC",
    "type": "weather_station",
    "website": null,
    "wiki": null
  },
  "CWJT": {
    "city": null,
    "country": "CA",
    "elevation_ft": 774,
    "elevation_m": 236,
    "gps": null,
    "iata": null,
    "icao": "CWJT",
    "latitude": 46.04,
    "local": null,
    "longitude": -74.34,
    "name": "ST JOVITE (AUTOB",
    "note": null,
    "reporting": true,
    "state": "QC",
    "type": "weather_station",
    "website": null,
    "wiki": null
  },
  "CWJU": {
    "city": null,
    "country": "CA",
    "elevation_ft": 154,
    "elevation_m": 47,
    "gps": null,
    "iata": null,
    "icao": "CWJU",
    "latitude": 54.15,
    "local": null,
    "longitude": -133.04,
    "name": "LANGARA",
    "note": null,
    "reporting": true,
    "state": "BC",
    "type": "weather_station",
    "website": null,
    "wiki": null
  },
  "CWJV": {
    "city": null,
    "country": "CA",
    "elevation_ft": 1598,
    "elevation_m": 487,
    "gps": null,
    "iata": null,
    "icao": "CWJV",
    "latitude": 50.13,
    "local": null,
    "longitude": -119.11,
    "name": "VERNON (AUTOB)",
    "note": null,
    "reporting": true,
    "state": "BC",
    "type": "weather_station",
    "website": null,
    "wiki": null
  },
  "CWJW": {
    "city": null,
    "country": "CA",
    "elevation_ft": 3353,
    "elevation_m": 1022,
    "gps": null,
    "iata": null,
    "icao": "CWJW",
    "latitude": 52.56,
    "local": null,
    "longitude": -118.02,
    "name": "JASPER WARDEN (A",
    "note": null,
    "reporting": true,
    "state": "AB",
    "type": "weather_station",
    "website": null,
    "wiki": null
  },
  "CWJX": {
    "city": null,
    "country": "CA",
    "elevation_ft": 2201,
    "elevation_m": 671,
    "gps": null,
    "iata": null,
    "icao": "CWJX",
    "latitude": 50.53,
    "local": null,
    "longitude": -109.3,
    "name": "LEADER ARPT (AUT",
    "note": null,
    "reporting": true,
    "state": "SK",
    "type": "weather_station",
    "website": null,
    "wiki": null
  },
  "CWKD": {
    "city": null,
    "country": "CA",
    "elevation_ft": 1627,
    "elevation_m": 496,
    "gps": null,
    "iata": null,
    "icao": "CWKD",
    "latitude": 50.44,
    "local": null,
    "longitude": -71.01,
    "name": "BONNARD(AUTO)",
    "note": null,
    "reporting": true,
    "state": "QC",
    "type": "weather_station",
    "website": null,
    "wiki": null
  },
  "CWKG": {
    "city": null,
    "country": "CA",
    "elevation_ft": 505,
    "elevation_m": 154,
    "gps": null,
    "iata": null,
    "icao": "CWKG",
    "latitude": 44.26,
    "local": null,
    "longitude": -65.12,
    "name": "KEJIMKUJIK (AU8)",
    "note": null,
    "reporting": true,
    "state": "NS",
    "type": "weather_station",
    "website": null,
    "wiki": null
  },
  "CWKH": {
    "city": null,
    "country": "CA",
    "elevation_ft": 1073,
    "elevation_m": 327,
    "gps": null,
    "iata": null,
    "icao": "CWKH",
    "latitude": 48.34,
    "local": null,
    "longitude": -123.33,
    "name": "MALAHAT (AUTOB)",
    "note": null,
    "reporting": true,
    "state": "BC",
    "type": "weather_station",
    "website": null,
    "wiki": null
  },
  "CWKK": {
    "city": null,
    "country": "CA",
    "elevation_ft": 850,
    "elevation_m": 259,
    "gps": null,
    "iata": null,
    "icao": "CWKK",
    "latitude": 49.43,
    "local": null,
    "longitude": -88.2,
    "name": "KATATOTA ISLAND",
    "note": null,
    "reporting": true,
    "state": "ON",
    "type": "weather_station",
    "website": null,
    "wiki": null
  },
  "CWKM": {
    "city": null,
    "country": "CA",
    "elevation_ft": 26,
    "elevation_m": 8,
    "gps": null,
    "iata": null,
    "icao": "CWKM",
    "latitude": 69.36,
    "local": null,
    "longitude": -140.1,
    "name": "KOMAKUK BEACH",
    "note": null,
    "reporting": true,
    "state": "YT",
    "type": "weather_station",
    "website": null,
    "wiki": null
  },
  "CWKO": {
    "city": null,
    "country": "CA",
    "elevation_ft": 2999,
    "elevation_m": 914,
    "gps": null,
    "iata": null,
    "icao": "CWKO",
    "latitude": 49.1,
    "local": null,
    "longitude": -105.58,
    "name": "ROCKGLEN (MARS)",
    "note": null,
    "reporting": true,
    "state": "SK",
    "type": "weather_station",
    "website": null,
    "wiki": null
  },
  "CWKP": {
    "city": null,
    "country": "CA",
    "elevation_ft": 1056,
    "elevation_m": 322,
    "gps": null,
    "iata": null,
    "icao": "CWKP",
    "latitude": 69.4,
    "local": null,
    "longitude": -121.4,
    "name": "KEATS POINT",
    "note": null,
    "reporting": true,
    "state": "NT",
    "type": "weather_station",
    "website": null,
    "wiki": null
  },
  "CWKS": {
    "city": null,
    "country": "CA",
    "elevation_ft": 3074,
    "elevation_m": 937,
    "gps": null,
    "iata": null,
    "icao": "CWKS",
    "latitude": 57.15,
    "local": null,
    "longitude": -122.43,
    "name": "SIKANNI CHIEF AU",
    "note": null,
    "reporting": false,
    "state": "BC",
    "type": "weather_station",
    "website": null,
    "wiki": null
  },
  "CWKV": {
    "city": null,
    "country": "CA",
    "elevation_ft": 2211,
    "elevation_m": 674,
    "gps": null,
    "iata": null,
    "icao": "CWKV",
    "latitude": 49.16,
    "local": null,
    "longitude": -121.13,
    "name": "HOPE SLIDE",
    "note": null,
    "reporting": false,
    "state": "BC",
    "type": "weather_station",
    "website": null,
    "wiki": null
  },
  "CWKW": {
    "city": null,
    "country": "CA",
    "elevation_ft": 1808,
    "elevation_m": 551,
    "gps": null,
    "iata": null,
    "icao": "CWKW",
    "latitude": 59.59,
    "local": null,
    "longitude": -64.1,
    "name": "CAPE KAKKIVIAK",
    "note": null,
    "reporting": false,
    "state": "NL",
    "type": "weather_station",
    "website": null,
    "wiki": null
  },
  "CWKX": {
    "city": null,
    "country": "CA",
    "elevation_ft": 2648,
    "elevation_m": 807,
    "gps": null,
    "iata": null,
    "icao": "CWKX",
    "latitude": 58.26,
    "local": null,
    "longitude": -130.01,
    "name": "DEASE LAKE CS",
    "note": null,
    "reporting": true,
    "state": "BC",
    "type": "weather_station",
    "website": null,
    "wiki": null
  },
  "CWLA": {
    "city": null,
    "country": "CA",
    "elevation_ft": 135,
    "elevation_m": 41,
    "gps": null,
    "iata": null,
    "icao": "CWLA",
    "latitude": 54.15,
    "local": null,
    "longitude": -133.04,
    "name": "LANGARA",
    "note": null,
    "reporting": false,
    "state": "BC",
    "type": "weather_station",
    "website": null,
    "wiki": null
  },
  "CWLB": {
    "city": null,
    "country": "CA",
    "elevation_ft": 1841,
    "elevation_m": 561,
    "gps": null,
    "iata": null,
    "icao": "CWLB",
    "latitude": 54.46,
    "local": null,
    "longitude": -112.01,
    "name": "LAC LA BICHE (MA",
    "note": null,
    "reporting": true,
    "state": "AB",
    "type": "weather_station",
    "website": null,
    "wiki": null
  },
  "CWLC": {
    "city": null,
    "country": "CA",
    "elevation_ft": 89,
    "elevation_m": 27,
    "gps": null,
    "iata": null,
    "icao": "CWLC",
    "latitude": 54.18,
    "local": null,
    "longitude": -130.37,
    "name": "LUCY ISL (LGT H)",
    "note": null,
    "reporting": true,
    "state": "BC",
    "type": "weather_station",
    "website": null,
    "wiki": null
  },
  "CWLE": {
    "city": null,
    "country": "CA",
    "elevation_ft": 2185,
    "elevation_m": 666,
    "gps": null,
    "iata": null,
    "icao": "CWLE",
    "latitude": 50.57,
    "local": null,
    "longitude": -107.09,
    "name": "LUCKY LAKE (AUTO",
    "note": null,
    "reporting": true,
    "state": "SK",
    "type": "weather_station",
    "website": null,
    "wiki": null
  },
  "CWLF": {
    "city": null,
    "country": "CA",
    "elevation_ft": 794,
    "elevation_m": 242,
    "gps": null,
    "iata": null,
    "icao": "CWLF",
    "latitude": 52.13,
    "local": null,
    "longitude": -87.52,
    "name": "LANSDOWNE HOUSE",
    "note": null,
    "reporting": false,
    "state": "ON",
    "type": "weather_station",
    "website": null,
    "wiki": null
  },
  "CWLI": {
    "city": null,
    "country": "CA",
    "elevation_ft": 302,
    "elevation_m": 92,
    "gps": null,
    "iata": null,
    "icao": "CWLI",
    "latitude": 69.36,
    "local": null,
    "longitude": -130.54,
    "name": "LIVERPOOL BAY",
    "note": null,
    "reporting": true,
    "state": "NT",
    "type": "weather_station",
    "website": null,
    "wiki": null
  },
  "CWLM": {
    "city": null,
    "country": "CA",
    "elevation_ft": 203,
    "elevation_m": 62,
    "gps": null,
    "iata": null,
    "icao": "CWLM",
    "latitude": 48.25,
    "local": null,
    "longitude": -123.19,
    "name": "VICTORIA (AUTOB)",
    "note": null,
    "reporting": true,
    "state": "BC",
    "type": "weather_station",
    "website": null,
    "wiki": null
  },
  "CWLO": {
    "city": null,
    "country": "CA",
    "elevation_ft": 1224,
    "elevation_m": 373,
    "gps": null,
    "iata": null,
    "icao": "CWLO",
    "latitude": 49.46,
    "local": null,
    "longitude": -99.37,
    "name": "SHILO",
    "note": null,
    "reporting": false,
    "state": "MB",
    "type": "weather_station",
    "website": null,
    "wiki": null
  },
  "CWLP": {
    "city": null,
    "country": "CA",
    "elevation_ft": 49,
    "elevation_m": 15,
    "gps": null,
    "iata": null,
    "icao": "CWLP",
    "latitude": 50.56,
    "local": null,
    "longitude": -127.38,
    "name": "HERBERT ISL (MAP",
    "note": null,
    "reporting": true,
    "state": "BC",
    "type": "weather_station",
    "website": null,
    "wiki": null
  },
  "CWLS": {
    "city": null,
    "country": "CA",
    "elevation_ft": 1355,
    "elevation_m": 413,
    "gps": null,
    "iata": null,
    "icao": "CWLS",
    "latitude": 43.58,
    "local": null,
    "longitude": -80.45,
    "name": "MOUNT FOREST(MAR",
    "note": null,
    "reporting": true,
    "state": "ON",
    "type": "weather_station",
    "website": null,
    "wiki": null
  },
  "CWLT": {
    "city": null,
    "country": "CA",
    "elevation_ft": 207,
    "elevation_m": 63,
    "gps": null,
    "iata": null,
    "icao": "CWLT",
    "latitude": 82.3,
    "local": null,
    "longitude": -62.19,
    "name": "ALERT",
    "note": null,
    "reporting": false,
    "state": "NU",
    "type": "weather_station",
    "website": null,
    "wiki": null
  },
  "CWLU": {
    "city": null,
    "country": "CA",
    "elevation_ft": 66,
    "elevation_m": 20,
    "gps": null,
    "iata": null,
    "icao": "CWLU",
    "latitude": 46.5,
    "local": null,
    "longitude": -71.1,
    "name": "LAUZON",
    "note": null,
    "reporting": false,
    "state": "QC",
    "type": "weather_station",
    "website": null,
    "wiki": null
  },
  "CWLX": {
    "city": null,
    "country": "CA",
    "elevation_ft": 423,
    "elevation_m": 129,
    "gps": null,
    "iata": null,
    "icao": "CWLX",
    "latitude": 68.54,
    "local": null,
    "longitude": -75.09,
    "name": "LONGSTAFF BLUFF",
    "note": null,
    "reporting": true,
    "state": "NU",
    "type": "weather_station",
    "website": null,
    "wiki": null
  },
  "CWLY": {
    "city": null,
    "country": "CA",
    "elevation_ft": 748,
    "elevation_m": 228,
    "gps": null,
    "iata": null,
    "icao": "CWLY",
    "latitude": 50.13,
    "local": null,
    "longitude": -121.35,
    "name": "LYTTON (READAC)",
    "note": null,
    "reporting": true,
    "state": "BC",
    "type": "weather_station",
    "website": null,
    "wiki": null
  },
  "CWMD": {
    "city": null,
    "country": "CA",
    "elevation_ft": 39,
    "elevation_m": 12,
    "gps": null,
    "iata": null,
    "icao": "CWMD",
    "latitude": 76.13,
    "local": null,
    "longitude": -119.19,
    "name": "MOULD BAY CAMP",
    "note": null,
    "reporting": false,
    "state": "NT",
    "type": "weather_station",
    "website": null,
    "wiki": null
  },
  "CWME": {
    "city": null,
    "country": "CA",
    "elevation_ft": 75,
    "elevation_m": 23,
    "gps": null,
    "iata": null,
    "icao": "CWME",
    "latitude": 52.11,
    "local": null,
    "longitude": -127.28,
    "name": "CATHEDRAL PT(MAP",
    "note": null,
    "reporting": true,
    "state": "BC",
    "type": "weather_station",
    "website": null,
    "wiki": null
  },
  "CWMI": {
    "city": null,
    "country": "CA",
    "elevation_ft": 10,
    "elevation_m": 3,
    "gps": null,
    "iata": null,
    "icao": "CWMI",
    "latitude": 48.01,
    "local": null,
    "longitude": -64.3,
    "name": "MISCOU ISL (MARS",
    "note": null,
    "reporting": false,
    "state": "NB",
    "type": "weather_station",
    "website": null,
    "wiki": null
  },
  "CWMJ": {
    "city": null,
    "country": "CA",
    "elevation_ft": 650,
    "elevation_m": 198,
    "gps": null,
    "iata": null,
    "icao": "CWMJ",
    "latitude": 46.16,
    "local": null,
    "longitude": -76.0,
    "name": "MANIWAKI",
    "note": null,
    "reporting": true,
    "state": "QC",
    "type": "weather_station",
    "website": null,
    "wiki": null
  },
  "CWMM": {
    "city": null,
    "country": "CA",
    "elevation_ft": 7,
    "elevation_m": 2,
    "gps": null,
    "iata": null,
    "icao": "CWMM",
    "latitude": 49.13,
    "local": null,
    "longitude": -122.41,
    "name": "P. MEADOWS CS AU",
    "note": null,
    "reporting": true,
    "state": "BC",
    "type": "weather_station",
    "website": null,
    "wiki": null
  },
  "CWMQ": {
    "city": null,
    "country": "CA",
    "elevation_ft": 2516,
    "elevation_m": 767,
    "gps": null,
    "iata": null,
    "icao": "CWMQ",
    "latitude": 49.54,
    "local": null,
    "longitude": -109.28,
    "name": "MAPLECREEK (AUTO",
    "note": null,
    "reporting": true,
    "state": "SK",
    "type": "weather_station",
    "website": null,
    "wiki": null
  },
  "CWMR": {
    "city": null,
    "country": "CA",
    "elevation_ft": 26,
    "elevation_m": 8,
    "gps": null,
    "iata": null,
    "icao": "CWMR",
    "latitude": 49.28,
    "local": null,
    "longitude": -123.55,
    "name": "MERRY ISLAND",
    "note": null,
    "reporting": false,
    "state": "BC",
    "type": "weather_station",
    "website": null,
    "wiki": null
  },
  "CWMS": {
    "city": null,
    "country": "CA",
    "elevation_ft": 85,
    "elevation_m": 26,
    "gps": null,
    "iata": null,
    "icao": "CWMS",
    "latitude": 52.16,
    "local": null,
    "longitude": -128.43,
    "name": "MCINNES ISLAND",
    "note": null,
    "reporting": false,
    "state": "BC",
    "type": "weather_station",
    "website": null,
    "wiki": null
  },
  "CWMT": {
    "city": null,
    "country": "CA",
    "elevation_ft": 899,
    "elevation_m": 274,
    "gps": null,
    "iata": null,
    "icao": "CWMT",
    "latitude": 63.08,
    "local": null,
    "longitude": -117.15,
    "name": "LAC LA MARTRE",
    "note": null,
    "reporting": true,
    "state": "NT",
    "type": "weather_station",
    "website": null,
    "wiki": null
  },
  "CWMZ": {
    "city": null,
    "country": "CA",
    "elevation_ft": 574,
    "elevation_m": 175,
    "gps": null,
    "iata": null,
    "icao": "CWMZ",
    "latitude": 45.01,
    "local": null,
    "longitude": -80.22,
    "name": "WESTERN ISL (MAP",
    "note": null,
    "reporting": true,
    "state": "ON",
    "type": "weather_station",
    "website": null,
    "wiki": null
  },
  "CWNB": {
    "city": null,
    "country": "CA",
    "elevation_ft": 551,
    "elevation_m": 168,
    "gps": null,
    "iata": null,
    "icao": "CWNB",
    "latitude": 41.49,
    "local": null,
    "longitude": -82.28,
    "name": "S.E. SHOAL (MAPS",
    "note": null,
    "reporting": false,
    "state": "ON",
    "type": "weather_station",
    "website": null,
    "wiki": null
  },
  "CWNC": {
    "city": null,
    "country": "CA",
    "elevation_ft": 233,
    "elevation_m": 71,
    "gps": null,
    "iata": null,
    "icao": "CWNC",
    "latitude": 43.57,
    "local": null,
    "longitude": -78.1,
    "name": "COBOURG (MARS)",
    "note": null,
    "reporting": true,
    "state": "ON",
    "type": "weather_station",
    "website": null,
    "wiki": null
  },
  "CWND": {
    "city": null,
    "country": "CA",
    "elevation_ft": 46,
    "elevation_m": 14,
    "gps": null,
    "iata": null,
    "icao": "CWND",
    "latitude": 69.38,
    "local": null,
    "longitude": -135.26,
    "name": "PELLY ISLAND",
    "note": null,
    "reporting": true,
    "state": "NT",
    "type": "weather_station",
    "website": null,
    "wiki": null
  },
  "CWNE": {
    "city": null,
    "country": "CA",
    "elevation_ft": 16,
    "elevation_m": 5,
    "gps": null,
    "iata": null,
    "icao": "CWNE",
    "latitude": 47.04,
    "local": null,
    "longitude": -64.0,
    "name": "NORTH POINT (AUT",
    "note": null,
    "reporting": true,
    "state": "PE",
    "type": "weather_station",
    "website": null,
    "wiki": null
  },
  "CWNH": {
    "city": null,
    "country": "CA",
    "elevation_ft": 482,
    "elevation_m": 147,
    "gps": null,
    "iata": null,
    "icao": "CWNH",
    "latitude": 47.48,
    "local": null,
    "longitude": -69.32,
    "name": "RIVIERE DU LOUP",
    "note": null,
    "reporting": true,
    "state": "QC",
    "type": "weather_station",
    "website": null,
    "wiki": null
  },
  "CWNJ": {
    "city": null,
    "country": "CA",
    "elevation_ft": 39,
    "elevation_m": 12,
    "gps": null,
    "iata": null,
    "icao": "CWNJ",
    "latitude": 54.34,
    "local": null,
    "longitude": -130.42,
    "name": "GREEN ISLAND (MT",
    "note": null,
    "reporting": false,
    "state": "BC",
    "type": "weather_station",
    "website": null,
    "wiki": null
  },
  "CWNK": {
    "city": null,
    "country": "CA",
    "elevation_ft": 889,
    "elevation_m": 271,
    "gps": null,
    "iata": null,
    "icao": "CWNK",
    "latitude": 49.3,
    "local": null,
    "longitude": -98.02,
    "name": "CARMAN U OF M",
    "note": null,
    "reporting": true,
    "state": "MB",
    "type": "weather_station",
    "website": null,
    "wiki": null
  },
  "CWNL": {
    "city": null,
    "country": "CA",
    "elevation_ft": 600,
    "elevation_m": 183,
    "gps": null,
    "iata": null,
    "icao": "CWNL",
    "latitude": 45.38,
    "local": null,
    "longitude": -82.56,
    "name": "GREAT DUCK ISLAN",
    "note": null,
    "reporting": true,
    "state": "ON",
    "type": "weather_station",
    "website": null,
    "wiki": null
  },
  "CWNM": {
    "city": null,
    "country": "CA",
    "elevation_ft": 1749,
    "elevation_m": 533,
    "gps": null,
    "iata": null,
    "icao": "CWNM",
    "latitude": 49.3,
    "local": null,
    "longitude": -117.18,
    "name": "NELSON (AUTOB)",
    "note": null,
    "reporting": true,
    "state": "BC",
    "type": "weather_station",
    "website": null,
    "wiki": null
  },
  "CWNP": {
    "city": null,
    "country": "CA",
    "elevation_ft": 1696,
    "elevation_m": 517,
    "gps": null,
    "iata": null,
    "icao": "CWNP",
    "latitude": 50.16,
    "local": null,
    "longitude": -117.49,
    "name": "NAKUSP (AUTOB)",
    "note": null,
    "reporting": true,
    "state": "BC",
    "type": "weather_station",
    "website": null,
    "wiki": null
  },
  "CWNQ": {
    "city": null,
    "country": "CA",
    "elevation_ft": 30,
    "elevation_m": 9,
    "gps": null,
    "iata": null,
    "icao": "CWNQ",
    "latitude": 46.13,
    "local": null,
    "longitude": -72.39,
    "name": "NICOLET (AUTOB)",
    "note": null,
    "reporting": true,
    "state": "QC",
    "type": "weather_station",
    "website": null,
    "wiki": null
  },
  "CWNX": {
    "city": null,
    "country": "CA",
    "elevation_ft": 2346,
    "elevation_m": 715,
    "gps": null,
    "iata": null,
    "icao": "CWNX",
    "latitude": 53.4,
    "local": null,
    "longitude": -124.49,
    "name": "NECHAKO RIVER AU",
    "note": null,
    "reporting": false,
    "state": "BC",
    "type": "weather_station",
    "website": null,
    "wiki": null
  },
  "CWNZ": {
    "city": null,
    "country": "CA",
    "elevation_ft": 856,
    "elevation_m": 261,
    "gps": null,
    "iata": null,
    "icao": "CWNZ",
    "latitude": 49.45,
    "local": null,
    "longitude": -84.1,
    "name": "NAGAGAMI (MARS)",
    "note": null,
    "reporting": true,
    "state": "ON",
    "type": "weather_station",
    "website": null,
    "wiki": null
  },
  "CWOC": {
    "city": null,
    "country": "CA",
    "elevation_ft": 138,
    "elevation_m": 42,
    "gps": null,
    "iata": null,
    "icao": "CWOC",
    "latitude": 48.01,
    "local": null,
    "longitude": -65.19,
    "name": "NEW CARLISLE1",
    "note": null,
    "reporting": true,
    "state": "QC",
    "type": "weather_station",
    "website": null,
    "wiki": null
  },
  "CWOD": {
    "city": null,
    "country": "CA",
    "elevation_ft": 492,
    "elevation_m": 150,
    "gps": null,
    "iata": null,
    "icao": "CWOD",
    "latitude": 48.51,
    "local": null,
    "longitude": -72.33,
    "name": "NORMANDIN",
    "note": null,
    "reporting": true,
    "state": "QC",
    "type": "weather_station",
    "website": null,
    "wiki": null
  },
  "CWOE": {
    "city": null,
    "country": "CA",
    "elevation_ft": 3054,
    "elevation_m": 931,
    "gps": null,
    "iata": null,
    "icao": "CWOE",
    "latitude": 49.07,
    "local": null,
    "longitude": -110.28,
    "name": "ONEFOUR (AUTOB)",
    "note": null,
    "reporting": true,
    "state": "AB",
    "type": "weather_station",
    "website": null,
    "wiki": null
  },
  "CWOK": {
    "city": null,
    "country": "CA",
    "elevation_ft": 1952,
    "elevation_m": 595,
    "gps": null,
    "iata": null,
    "icao": "CWOK",
    "latitude": 51.07,
    "local": null,
    "longitude": -106.34,
    "name": "ELBOW (MARS)",
    "note": null,
    "reporting": false,
    "state": "SK",
    "type": "weather_station",
    "website": null,
    "wiki": null
  },
  "CWOU": {
    "city": null,
    "country": "CA",
    "elevation_ft": 1988,
    "elevation_m": 606,
    "gps": null,
    "iata": null,
    "icao": "CWOU",
    "latitude": 54.46,
    "local": null,
    "longitude": -110.04,
    "name": "PRIMROSE LAKE 2",
    "note": null,
    "reporting": false,
    "state": "AB",
    "type": "weather_station",
    "website": null,
    "wiki": null
  },
  "CWOY": {
    "city": null,
    "country": "CA",
    "elevation_ft": 1827,
    "elevation_m": 557,
    "gps": null,
    "iata": null,
    "icao": "CWOY",
    "latitude": 51.46,
    "local": null,
    "longitude": -104.12,
    "name": "WYNYARD (AUT)",
    "note": null,
    "reporting": true,
    "state": "SK",
    "type": "weather_station",
    "website": null,
    "wiki": null
  },
  "CWPB": {
    "city": null,
    "country": "CA",
    "elevation_ft": 600,
    "elevation_m": 183,
    "gps": null,
    "iata": null,
    "icao": "CWPB",
    "latitude": 44.51,
    "local": null,
    "longitude": -79.52,
    "name": "BEAUSOLEIL ISL A",
    "note": null,
    "reporting": false,
    "state": "ON",
    "type": "weather_station",
    "website": null,
    "wiki": null
  },
  "CWPC": {
    "city": null,
    "country": "CA",
    "elevation_ft": 571,
    "elevation_m": 174,
    "gps": null,
    "iata": null,
    "icao": "CWPC",
    "latitude": 42.52,
    "local": null,
    "longitude": -79.15,
    "name": "PORT COLBORNE(AU",
    "note": null,
    "reporting": true,
    "state": "ON",
    "type": "weather_station",
    "website": null,
    "wiki": null
  },
  "CWPD": {
    "city": null,
    "country": "CA",
    "elevation_ft": 2608,
    "elevation_m": 795,
    "gps": null,
    "iata": null,
    "icao": "CWPD",
    "latitude": 47.34,
    "local": null,
    "longitude": -71.13,
    "name": "PARC DES LAURENT",
    "note": null,
    "reporting": true,
    "state": "QC",
    "type": "weather_station",
    "website": null,
    "wiki": null
  },
  "CWPE": {
    "city": null,
    "country": "CA",
    "elevation_ft": 30,
    "elevation_m": 9,
    "gps": null,
    "iata": null,
    "icao": "CWPE",
    "latitude": 45.04,
    "local": null,
    "longitude": -66.28,
    "name": "POINT LEPREAU",
    "note": null,
    "reporting": true,
    "state": "NB",
    "type": "weather_station",
    "website": null,
    "wiki": null
  },
  "CWPF": {
    "city": null,
    "country": "CA",
    "elevation_ft": 16,
    "elevation_m": 5,
    "gps": null,
    "iata": null,
    "icao": "CWPF",
    "latitude": 48.26,
    "local": null,
    "longitude": -123.26,
    "name": "ESQUIMALT METOC",
    "note": null,
    "reporting": true,
    "state": "BC",
    "type": "weather_station",
    "website": null,
    "wiki": null
  },
  "CWPI": {
    "city": null,
    "country": "CA",
    "elevation_ft": 30,
    "elevation_m": 9,
    "gps": null,
    "iata": null,
    "icao": "CWPI",
    "latitude": 50.59,
    "local": null,
    "longitude": -127.44,
    "name": "PINE ISLAND (MAP",
    "note": null,
    "reporting": false,
    "state": "BC",
    "type": "weather_station",
    "website": null,
    "wiki": null
  },
  "CWPJ": {
    "city": null,
    "country": "CA",
    "elevation_ft": 16,
    "elevation_m": 5,
    "gps": null,
    "iata": null,
    "icao": "CWPJ",
    "latitude": 47.04,
    "local": null,
    "longitude": -64.47,
    "name": "PT. ESCUMINAC(MA",
    "note": null,
    "reporting": false,
    "state": "NB",
    "type": "weather_station",
    "website": null,
    "wiki": null
  },
  "CWPK": {
    "city": null,
    "country": "CA",
    "elevation_ft": 1453,
    "elevation_m": 443,
    "gps": null,
    "iata": null,
    "icao": "CWPK",
    "latitude": 47.55,
    "local": null,
    "longitude": -74.37,
    "name": "PARENT (MARS)",
    "note": null,
    "reporting": true,
    "state": "QC",
    "type": "weather_station",
    "website": null,
    "wiki": null
  },
  "CWPO": {
    "city": null,
    "country": "CA",
    "elevation_ft": 1545,
    "elevation_m": 471,
    "gps": null,
    "iata": null,
    "icao": "CWPO",
    "latitude": 49.12,
    "local": null,
    "longitude": -98.54,
    "name": "PILOT MOUND (MAR",
    "note": null,
    "reporting": true,
    "state": "MB",
    "type": "weather_station",
    "website": null,
    "wiki": null
  },
  "CWPQ": {
    "city": null,
    "country": "CA",
    "elevation_ft": 20,
    "elevation_m": 6,
    "gps": null,
    "iata": null,
    "icao": "CWPQ",
    "latitude": 45.38,
    "local": null,
    "longitude": -73.3,
    "name": "MONTREAL EST",
    "note": null,
    "reporting": false,
    "state": "QC",
    "type": "weather_station",
    "website": null,
    "wiki": null
  },
  "CWPR": {
    "city": null,
    "country": "CA",
    "elevation_ft": 2306,
    "elevation_m": 703,
    "gps": null,
    "iata": null,
    "icao": "CWPR",
    "latitude": 49.28,
    "local": null,
    "longitude": -120.31,
    "name": "PRINCETON",
    "note": null,
    "reporting": true,
    "state": "BC",
    "type": "weather_station",
    "website": null,
    "wiki": null
  },